$GPGSA,A,1,,,,,,,,,,,,,,,*1E
$GPRMC,235947.799,V,,,,,0.00,0.00,050180,,,N*48
$GPVTG,0.00,T,,M,0.00,N,0.00,K,N*32
$GPGGA,235948.799,,,,,0,0,,,M,,M,,*4E
$GPGSA,A,1,,,,,,,,,,,,,,,*1E
$GPRMC,235948.799,V,,,,,0.00,0.00,050180,,,N*47
$GPVTG,0.00,T,,M,0.00,N,0.00,K,N*32
$GPGGA,235949.799,,,,,0,0,,,M,,M,,*4F
$GPGSA,A,1,,,,,,,,,,,,,,,*1E
$GPRMC,235949.799,V,,,,,0.00,0.00,050180,,,N*46
$GPVTG,0.00,T,,M,0.00,N,0.00,K,N*32
$GPGGA,235950.800,,,,,0,0,,,M,,M,,*48
$GPGSA,A,1,,,,,,,,,,,,,,,*1E
$GPRMC,235950.800,V,,,,,0.00,0.00,050180,,,N*41
$GPVTG,0.00,T,,M,0.00,N,0.00,K,N*32
$GPGGA,235951.800,,,,,0,0,,,M,,M,,*49
$GPGSA,A,1,,,,,,,,,,,,,,,*1E
$GPGSV,1,1,01,22,,,28*72
$GPRMC,235951.800,V,,,,,0.00,0.00,050180,,,N*40
$GPVTG,0.00,T,,M,0.00,N,0.00,K,N*32
$GPGGA,235952.800,,,,,0,0,,,M,,M,,*4A
$GPGSA,A,1,,,,,,,,,,,,,,,*1E
$GPRMC,235952.800,V,,,,,0.00,0.00,050180,,,N*43
$GPVTG,0.00,T,,M,0.00,N,0.00,K,N*32
$GPGGA,235953.800,,,,,0,0,,,M,,M,,*4B
$GPGSA,A,1,,,,,,,,,,,,,,,*1E
$GPRMC,235953.800,V,,,,,0.00,0.00,050180,,,N*42
$GPVTG,0.00,T,,M,0.00,N,0.00,K,N*32
$GPGGA,235954.800,,,,,0,0,,,M,,M,,*4C
$GPGSA,A,1,,,,,,,,,,,,,,,*1E
$GPRMC,235954.800,V,,,,,0.00,0.00,050180,,,N*45
$GPVTG,0.00,T,,M,0.00,N,0.00,K,N*32
$GPGGA,235955.800,,,,,0,0,,,M,,M,,*4D
$GPGSA,A,1,,,,,,,,,,,,,,,*1E
$GPRMC,235955.800,V,,,,,0.00,0.00,050180,,,N*44
$GPVTG,0.00,T,,M,0.00,N,0.00,K,N*32
$GPGGA,235956.800,,,,,0,0,,,M,,M,,*4E
$GPGSA,A,1,,,,,,,,,,,,,,,*1E
$GPGSV,1,1,01,22,,,25*7F
$GPRMC,235956.800,V,,,,,0.00,0.00,050180,,,N*47
$GPVTG,0.00,T,,M,0.00,N,0.00,K,N*32
$GPGGA,235957.800,,,,,0,0,,,M,,M,,*4F
$GPGSA,A,1,,,,,,,,,,,,,,,*1E
$GPRMC,235957.800,V,,,,,0.00,0.00,050180,,,N*46
$GPVTG,0.00,T,,M,0.00,N,0.00,K,N*32
$GPGGA,235958.800,,,,,0,0,,,M,,M,,*40
$GPGSA,A,1,,,,,,,,,,,,,,,*1E
$GPRMC,235958.800,V,,,,,0.00,0.00,050180,,,N*49
$GPVTG,0.00,T,,M,0.00,N,0.00,K,N*32
$GPGGA,235959.800,,,,,0,0,,,M,,M,,*41
$GPGSA,A,1,,,,,,,,,,,,,,,*1E
$GPRMC,235959.800,V,,,,,0.00,0.00,050180,,,N*48
$GPVTG,0.00,T,,M,0.00,N,0.00,K,N*32
$GPGGA,000000.800,,,,,0,0,,,M,,M,,*40
$GPGSA,A,1,,,,,,,,,,,,,,,*1E
$GPRMC,000000.800,V,,,,,0.00,0.00,060180,,,N*4A
$GPVTG,0.00,T,,M,0.00,N,0.00,K,N*32
$GPGGA,000001.417,,,,,0,0,,,M,,M,,*4B
$GPGSA,A,1,,,,,,,,,,,,,,,*1E
$GPGSV,1,1,01,22,,,33*78
$GPRMC,000001.417,V,,,,,0.00,0.00,060180,,,N*41
$GPVTG,0.00,T,,M,0.00,N,0.00,K,N*32
$GPGGA,000002.417,,,,,0,0,,,M,,M,,*48
$GPGSA,A,1,,,,,,,,,,,,,,,*1E
$GPRMC,000002.417,V,,,,,0.00,0.00,060180,,,N*42
$GPVTG,0.00,T,,M,0.00,N,0.00,K,N*32
$GPGGA,080220.098,,,,,0,0,,,M,,M,,*41
$GPGSA,A,1,,,,,,,,,,,,,,,*1E
$GPRMC,080220.098,V,,,,,0.00,0.00,090180,,,N*44
$GPVTG,0.00,T,,M,0.00,N,0.00,K,N*32
$GPGGA,080221.098,,,,,0,0,,,M,,M,,*40
$GPGSA,A,1,,,,,,,,,,,,,,,*1E
$GPRMC,080221.098,V,,,,,0.00,0.00,090180,,,N*45
$GPVTG,0.00,T,,M,0.00,N,0.00,K,N*32
$GPGGA,080222.098,,,,,0,0,,,M,,M,,*43
$GPGSA,A,1,,,,,,,,,,,,,,,*1E
$GPRMC,080222.098,V,,,,,0.00,0.00,090180,,,N*46
$GPVTG,0.00,T,,M,0.00,N,0.00,K,N*32
$GPGGA,080223.098,,,,,0,0,,,M,,M,,*42
$GPGSA,A,1,,,,,,,,,,,,,,,*1E
$GPGSV,1,1,02,01,,,38,22,,,31*73
$GPRMC,080223.098,V,,,,,0.00,0.00,090180,,,N*47
$GPVTG,0.00,T,,M,0.00,N,0.00,K,N*32
$GPGGA,080224.097,,,,,0,0,,,M,,M,,*4A
$GPGSA,A,1,,,,,,,,,,,,,,,*1E
$GPRMC,080224.097,V,,,,,0.00,0.00,090180,,,N*4F
$GPVTG,0.00,T,,M,0.00,N,0.00,K,N*32
$GPGGA,080225.097,,,,,0,0,,,M,,M,,*4B
$GPGSA,A,1,,,,,,,,,,,,,,,*1E
$GPRMC,080225.097,V,,,,,0.00,0.00,090180,,,N*4E
$GPVTG,0.00,T,,M,0.00,N,0.00,K,N*32
$GPGGA,080226.097,,,,,0,0,,,M,,M,,*48
$GPGSA,A,1,,,,,,,,,,,,,,,*1E
$GPRMC,080226.097,V,,,,,0.00,0.00,090180,,,N*4D
$GPVTG,0.00,T,,M,0.00,N,0.00,K,N*32
$GPGGA,080227.097,,,,,0,0,,,M,,M,,*49
$GPGSA,A,1,,,,,,,,,,,,,,,*1E
$GPRMC,080227.097,V,,,,,0.00,0.00,090180,,,N*4C
$GPVTG,0.00,T,,M,0.00,N,0.00,K,N*32
$GPGGA,080228.097,,,,,0,0,,,M,,M,,*46
$GPGSA,A,1,,,,,,,,,,,,,,,*1E
$GPGSV,2,1,05,01,,,30,22,,,28,31,,,40,14,,,36*71
$GPGSV,2,2,05,03,,,35*79
$GPRMC,080228.097,V,,,,,0.00,0.00,090180,,,N*43
$GPVTG,0.00,T,,M,0.00,N,0.00,K,N*32
$GPGGA,080229.097,,,,,0,0,,,M,,M,,*47
$GPGSA,A,1,,,,,,,,,,,,,,,*1E
$GPRMC,080229.097,V,,,,,0.00,0.00,090180,,,N*42
$GPVTG,0.00,T,,M,0.00,N,0.00,K,N*32
$GPGGA,080230.097,,,,,0,0,,,M,,M,,*4F
$GPGSA,A,1,,,,,,,,,,,,,,,*1E
$GPRMC,080230.097,V,,,,,0.00,0.00,090180,,,N*4A
$GPVTG,0.00,T,,M,0.00,N,0.00,K,N*32
$GPGGA,080231.097,,,,,0,0,,,M,,M,,*4E
$GPGSA,A,1,,,,,,,,,,,,,,,*1E
$GPRMC,080231.097,V,,,,,0.00,0.00,090180,,,N*4B
$GPVTG,0.00,T,,M,0.00,N,0.00,K,N*32
$GPGGA,080232.097,,,,,0,0,,,M,,M,,*4D
$GPGSA,A,1,,,,,,,,,,,,,,,*1E
$GPRMC,080232.097,V,,,,,0.00,0.00,090180,,,N*48
$GPVTG,0.00,T,,M,0.00,N,0.00,K,N*32
$GPGGA,080233.097,,,,,0,0,,,M,,M,,*4C
$GPGSA,A,1,,,,,,,,,,,,,,,*1E
$GPGSV,2,1,06,01,,,24,22,,,26,31,,,38,14,,,33*73
$GPGSV,2,2,06,03,,,28,23,,,29*7C
$GPRMC,080233.097,V,,,,,0.00,0.00,090180,,,N*49
$GPVTG,0.00,T,,M,0.00,N,0.00,K,N*32
$GPGGA,080234.097,,,,,0,0,,,M,,M,,*4B
$GPGSA,A,1,,,,,,,,,,,,,,,*1E
$GPRMC,080234.097,V,,,,,0.00,0.00,090180,,,N*4E
$GPVTG,0.00,T,,M,0.00,N,0.00,K,N*32
$GPGGA,080235.097,,,,,0,0,,,M,,M,,*4A
$GPGSA,A,1,,,,,,,,,,,,,,,*1E
$GPRMC,080235.097,V,,,,,0.00,0.00,090180,,,N*4F
$GPVTG,0.00,T,,M,0.00,N,0.00,K,N*32
$GPGGA,080236.097,,,,,0,0,,,M,,M,,*49
$GPGSA,A,1,,,,,,,,,,,,,,,*1E
$GPRMC,080236.097,V,,,,,0.00,0.00,090180,,,N*4C
$GPVTG,0.00,T,,M,0.00,N,0.00,K,N*32
$GPGGA,080237.097,,,,,0,0,,,M,,M,,*48
$GPGSA,A,1,,,,,,,,,,,,,,,*1E
$GPRMC,080237.097,V,,,,,0.00,0.00,090180,,,N*4D
$GPVTG,0.00,T,,M,0.00,N,0.00,K,N*32
$GPGGA,080238.097,,,,,0,0,,,M,,M,,*47
$GPGSA,A,1,,,,,,,,,,,,,,,*1E
$GPGSV,2,1,06,01,,,24,22,,,26,31,,,37,14,,,33*7C
$GPGSV,2,2,06,03,,,30,23,,,29*75
$GPRMC,080238.097,V,,,,,0.00,0.00,090180,,,N*42
$GPVTG,0.00,T,,M,0.00,N,0.00,K,N*32
$GPGGA,080239.097,,,,,0,0,,,M,,M,,*46
$GPGSA,A,1,,,,,,,,,,,,,,,*1E
$GPRMC,080239.097,V,,,,,0.00,0.00,090180,,,N*43
$GPVTG,0.00,T,,M,0.00,N,0.00,K,N*32
$GPGGA,080240.097,,,,,0,0,,,M,,M,,*48
$GPGSA,A,1,,,,,,,,,,,,,,,*1E
$GPRMC,080240.097,V,,,,,0.00,0.00,090180,,,N*4D
$GPVTG,0.00,T,,M,0.00,N,0.00,K,N*32
$GPGGA,080241.097,,,,,0,0,,,M,,M,,*49
$GPGSA,A,1,,,,,,,,,,,,,,,*1E
$GPRMC,080241.097,V,,,,,0.00,0.00,090180,,,N*4C
$GPVTG,0.00,T,,M,0.00,N,0.00,K,N*32
$GPGGA,080242.097,,,,,0,0,,,M,,M,,*4A
$GPGSA,A,1,,,,,,,,,,,,,,,*1E
$GPRMC,080242.097,V,,,,,0.00,0.00,090180,,,N*4F
$GPVTG,0.00,T,,M,0.00,N,0.00,K,N*32
$GPGGA,080243.097,,,,,0,0,,,M,,M,,*4B
$GPGSA,A,1,,,,,,,,,,,,,,,*1E
$GPGSV,2,1,06,01,,,24,22,,,25,31,,,30,14,,,30*7B
$GPGSV,2,2,06,03,,,33,23,,,38*76
$GPRMC,080243.097,V,,,,,0.00,0.00,090180,,,N*4E
$GPVTG,0.00,T,,M,0.00,N,0.00,K,N*32
$GPGGA,080244.097,,,,,0,0,,,M,,M,,*4C
$GPGSA,A,1,,,,,,,,,,,,,,,*1E
$GPRMC,080244.097,V,,,,,0.00,0.00,090180,,,N*49
$GPVTG,0.00,T,,M,0.00,N,0.00,K,N*32
$GPGGA,080245.097,,,,,0,0,,,M,,M,,*4D
$GPGSA,A,1,,,,,,,,,,,,,,,*1E
$GPRMC,080245.097,V,,,,,0.00,0.00,090180,,,N*48
$GPVTG,0.00,T,,M,0.00,N,0.00,K,N*32
$GPGGA,080246.097,,,,,0,0,,,M,,M,,*4E
$GPGSA,A,1,,,,,,,,,,,,,,,*1E
$GPRMC,080246.097,V,,,,,0.00,0.00,090180,,,N*4B
$GPVTG,0.00,T,,M,0.00,N,0.00,K,N*32
$GPGGA,080247.097,,,,,0,0,,,M,,M,,*4F
$GPGSA,A,1,,,,,,,,,,,,,,,*1E
$GPRMC,080247.097,V,,,,,0.00,0.00,090180,,,N*4A
$GPVTG,0.00,T,,M,0.00,N,0.00,K,N*32
$GPGGA,080248.085,,,,,0,0,,,M,,M,,*43
$GPGSA,A,1,,,,,,,,,,,,,,,*1E
$GPGSV,2,1,08,01,,,25,22,,,26,31,,,29,14,,,28*76
$GPGSV,2,2,08,03,,,36,23,,,33,18,,,33,11,,,39*75
$GPRMC,080248.085,V,,,,,0.00,0.00,090180,,,N*46
$GPVTG,0.00,T,,M,0.00,N,0.00,K,N*32
$GPGGA,080248.304,,,,,0,0,,,M,,M,,*49
$GPGSA,A,1,,,,,,,,,,,,,,,*1E
$GPRMC,080248.304,V,,,,,0.00,0.00,090180,,,N*4C
$GPVTG,0.00,T,,M,0.00,N,0.00,K,N*32
$GPGGA,080249.304,,,,,0,0,,,M,,M,,*48
$GPGSA,A,1,,,,,,,,,,,,,,,*1E
$GPRMC,080249.304,V,,,,,0.00,0.00,090180,,,N*4D
$GPVTG,0.00,T,,M,0.00,N,0.00,K,N*32
$GPGGA,080250.304,,,,,0,0,,,M,,M,,*40
$GPGSA,A,1,,,,,,,,,,,,,,,*1E
$GPRMC,080250.304,V,,,,,0.00,0.00,090180,,,N*45
$GPVTG,0.00,T,,M,0.00,N,0.00,K,N*32
$GPGGA,080251.304,,,,,0,0,,,M,,M,,*41
$GPGSA,A,1,,,,,,,,,,,,,,,*1E
$GPRMC,080251.304,V,,,,,0.00,0.00,090180,,,N*44
$GPVTG,0.00,T,,M,0.00,N,0.00,K,N*32
$GPGGA,080252.304,,,,,0,0,,,M,,M,,*42
$GPGSA,A,1,,,,,,,,,,,,,,,*1E
$GPGSV,3,1,09,01,,,24,22,,,26,31,,,27,14,,,27*76
$GPGSV,3,2,09,03,,,38,23,,,29,18,,,30,11,,,39*73
$GPGSV,3,3,09,19,,,35*7E
$GPRMC,080252.304,V,,,,,0.00,0.00,090180,,,N*47
$GPVTG,0.00,T,,M,0.00,N,0.00,K,N*32
$GPGGA,080253.304,,,,,0,0,,,M,,M,,*43
$GPGSA,A,1,,,,,,,,,,,,,,,*1E
$GPRMC,080253.304,V,,,,,0.00,0.00,090180,,,N*46
$GPVTG,0.00,T,,M,0.00,N,0.00,K,N*32
$GPGGA,080254.085,,,,,0,0,,,M,,M,,*4E
$GPGSA,A,1,,,,,,,,,,,,,,,*1E
$GPRMC,080254.085,V,,,,,0.00,0.00,090180,,,N*4B
$GPVTG,0.00,T,,M,0.00,N,0.00,K,N*32
$GPGGA,080254.304,,,,,0,0,,,M,,M,,*44
$GPGSA,A,1,,,,,,,,,,,,,,,*1E
$GPRMC,080254.304,V,,,,,0.00,0.00,090180,,,N*41
$GPVTG,0.00,T,,M,0.00,N,0.00,K,N*32
$GPGGA,080255.304,,,,,0,0,,,M,,M,,*45
$GPGSA,A,1,,,,,,,,,,,,,,,*1E
$GPRMC,080255.304,V,,,,,0.00,0.00,090180,,,N*40
$GPVTG,0.00,T,,M,0.00,N,0.00,K,N*32
$GPGGA,080256.304,,,,,0,0,,,M,,M,,*46
$GPGSA,A,1,,,,,,,,,,,,,,,*1E
$GPGSV,3,1,10,01,,,22,22,,,24,31,,,25,14,,,25*7A
$GPGSV,3,2,10,03,,,36,23,,,27,18,,,30,11,,,38*7A
$GPGSV,3,3,10,19,,,36,17,,,39*79
$GPRMC,080256.304,V,,,,,0.00,0.00,090180,,,N*43
$GPVTG,0.00,T,,M,0.00,N,0.00,K,N*32
$GPGGA,080257.304,,,,,0,0,,,M,,M,,*47
$GPGSA,A,1,,,,,,,,,,,,,,,*1E
$GPRMC,080257.304,V,,,,,0.00,0.00,090180,,,N*42
$GPVTG,0.00,T,,M,0.00,N,0.00,K,N*32
$GPGGA,080258.304,,,,,0,0,,,M,,M,,*48
$GPGSA,A,1,,,,,,,,,,,,,,,*1E
$GPRMC,080258.304,V,,,,,0.00,0.00,090180,,,N*4D
$GPVTG,0.00,T,,M,0.00,N,0.00,K,N*32
$GPGGA,080259.304,,,,,0,0,,,M,,M,,*49
$GPGSA,A,1,,,,,,,,,,,,,,,*1E
$GPRMC,080259.304,V,,,,,0.00,0.00,090180,,,N*4C
$GPVTG,0.00,T,,M,0.00,N,0.00,K,N*32
$GPGGA,080300.094,,,,,0,0,,,M,,M,,*4E
$GPGSA,A,1,,,,,,,,,,,,,,,*1E
$GPRMC,080300.094,V,,,,,0.00,0.00,271119,,,N*46
$GPVTG,0.00,T,,M,0.00,N,0.00,K,N*32
$GPGGA,080301.094,,,,,0,0,,,M,,M,,*4F
$GPGSA,A,1,,,,,,,,,,,,,,,*1E
$GPGSV,3,1,10,01,,,32,22,,,30,31,,,25,14,,,28*73
$GPGSV,3,2,10,03,,,35,23,,,39,18,,,23,11,,,34*78
$GPGSV,3,3,10,19,,,35,17,,,38*7B
$GPRMC,080301.094,V,,,,,0.00,0.00,271119,,,N*47
$GPVTG,0.00,T,,M,0.00,N,0.00,K,N*32
$GPGGA,080302.094,,,,,0,0,,,M,,M,,*4C
$GPGSA,A,1,,,,,,,,,,,,,,,*1E
$GPRMC,080302.094,V,,,,,0.00,0.00,271119,,,N*44
$GPVTG,0.00,T,,M,0.00,N,0.00,K,N*32
$GPGGA,080303.094,,,,,0,0,,,M,,M,,*4D
$GPGSA,A,1,,,,,,,,,,,,,,,*1E
$GPRMC,080303.094,V,,,,,0.00,0.00,271119,,,N*45
$GPVTG,0.00,T,,M,0.00,N,0.00,K,N*32
$GPGGA,080304.094,,,,,0,0,,,M,,M,,*4A
$GPGSA,A,1,,,,,,,,,,,,,,,*1E
$GPRMC,080304.094,V,,,,,0.00,0.00,271119,,,N*42
$GPVTG,0.00,T,,M,0.00,N,0.00,K,N*32
$GPGGA,080305.094,,,,,0,0,,,M,,M,,*4B
$GPGSA,A,1,,,,,,,,,,,,,,,*1E
$GPRMC,080305.094,V,,,,,0.00,0.00,271119,,,N*43
$GPVTG,0.00,T,,M,0.00,N,0.00,K,N*32
$GPGGA,080306.091,,,,,0,0,,,M,,M,,*4D
$GPGSA,A,1,,,,,,,,,,,,,,,*1E
$GPGSV,3,1,10,01,,,28,22,,,26,31,,,27,14,,,28*7D
$GPGSV,3,2,10,03,,,36,23,,,37,18,,,33,11,,,39*79
$GPGSV,3,3,10,19,,,38,17,,,37*79
$GPRMC,080306.091,V,,,,,0.00,0.00,271119,,,N*45
$GPVTG,0.00,T,,M,0.00,N,0.00,K,N*32
$GPGGA,080306.310,,,,,0,0,,,M,,M,,*47
$GPGSA,A,1,,,,,,,,,,,,,,,*1E
$GPRMC,080306.310,V,,,,,0.00,0.00,271119,,,N*4F
$GPVTG,0.00,T,,M,0.00,N,0.00,K,N*32
$GPGGA,080307.310,,,,,0,0,,,M,,M,,*46
$GPGSA,A,1,,,,,,,,,,,,,,,*1E
$GPRMC,080307.310,V,,,,,0.00,0.00,271119,,,N*4E
$GPVTG,0.00,T,,M,0.00,N,0.00,K,N*32
$GPGGA,080308.310,,,,,0,0,,,M,,M,,*49
$GPGSA,A,1,,,,,,,,,,,,,,,*1E
$GPRMC,080308.310,V,,,,,0.00,0.00,271119,,,N*41
$GPVTG,0.00,T,,M,0.00,N,0.00,K,N*32
$GPGGA,080309.310,,,,,0,0,,,M,,M,,*48
$GPGSA,A,1,,,,,,,,,,,,,,,*1E
$GPRMC,080309.310,V,,,,,0.00,0.00,271119,,,N*40
$GPVTG,0.00,T,,M,0.00,N,0.00,K,N*32
$GPGGA,080310.310,,,,,0,0,,,M,,M,,*40
$GPGSA,A,1,,,,,,,,,,,,,,,*1E
$GPGSV,3,1,10,01,,,39,22,,,27,31,,,40,14,,,31*75
$GPGSV,3,2,10,03,,,37,23,,,36,18,,,35,11,,,39*7F
$GPGSV,3,3,10,19,,,31,17,,,32*75
$GPRMC,080310.310,V,,,,,0.00,0.00,271119,,,N*48
$GPVTG,0.00,T,,M,0.00,N,0.00,K,N*32
$GPGGA,080311.310,,,,,0,0,,,M,,M,,*41
$GPGSA,A,1,,,,,,,,,,,,,,,*1E
$GPRMC,080311.310,V,,,,,0.00,0.00,271119,,,N*49
$GPVTG,0.00,T,,M,0.00,N,0.00,K,N*32
$GPGGA,080312.091,,,,,0,0,,,M,,M,,*48
$GPGSA,A,1,,,,,,,,,,,,,,,*1E
$GPRMC,080312.091,V,,,,,0.00,0.00,271119,,,N*40
$GPVTG,0.00,T,,M,0.00,N,0.00,K,N*32
$GPGGA,080312.310,,,,,0,0,,,M,,M,,*42
$GPGSA,A,1,,,,,,,,,,,,,,,*1E
$GPRMC,080312.310,V,,,,,0.00,0.00,271119,,,N*4A
$GPVTG,0.00,T,,M,0.00,N,0.00,K,N*32
$GPGGA,080313.310,,,,,0,0,,,M,,M,,*43
$GPGSA,A,1,,,,,,,,,,,,,,,*1E
$GPRMC,080313.310,V,,,,,0.00,0.00,271119,,,N*4B
$GPVTG,0.00,T,,M,0.00,N,0.00,K,N*32
$GPGGA,080314.310,,,,,0,0,,,M,,M,,*44
$GPGSA,A,1,,,,,,,,,,,,,,,*1E
$GPGSV,3,1,10,01,,,27,22,,,20,31,,,31,14,,,23*78
$GPGSV,3,2,10,03,,,29,23,,,29,18,,,25,11,,,25*72
$GPGSV,3,3,10,19,,,18,17,,,18*76
$GPRMC,080314.310,V,,,,,0.00,0.00,271119,,,N*4C
$GPVTG,0.00,T,,M,0.00,N,0.00,K,N*32
$GPGGA,080315.310,,,,,0,0,,,M,,M,,*45
$GPGSA,A,1,,,,,,,,,,,,,,,*1E
$GPRMC,080315.310,V,,,,,0.00,0.00,271119,,,N*4D
$GPVTG,0.00,T,,M,0.00,N,0.00,K,N*32
$GPGGA,080316.310,,,,,0,0,,,M,,M,,*46
$GPGSA,A,1,,,,,,,,,,,,,,,*1E
$GPRMC,080316.310,V,,,,,0.00,0.00,271119,,,N*4E
$GPVTG,0.00,T,,M,0.00,N,0.00,K,N*32
$GPGGA,080317.310,,,,,0,0,,,M,,M,,*47
$GPGSA,A,1,,,,,,,,,,,,,,,*1E
$GPRMC,080317.310,V,,,,,0.00,0.00,271119,,,N*4F
$GPVTG,0.00,T,,M,0.00,N,0.00,K,N*32
$GPGGA,080318.091,,,,,0,0,,,M,,M,,*42
$GPGSA,A,1,,,,,,,,,,,,,,,*1E
$GPRMC,080318.091,V,,,,,0.00,0.00,271119,,,N*4A
$GPVTG,0.00,T,,M,0.00,N,0.00,K,N*32
$GPGGA,080318.310,,,,,0,0,,,M,,M,,*48
$GPGSA,A,1,,,,,,,,,,,,,,,*1E
$GPGSV,3,1,09,01,,,21,22,,,19,31,,,25,14,,,21*7B
$GPGSV,3,2,09,03,,,28,23,,,23,18,,,24,11,,,20*75
$GPGSV,3,3,09,19,,,14*7D
$GPRMC,080318.310,V,,,,,0.00,0.00,271119,,,N*40
$GPVTG,0.00,T,,M,0.00,N,0.00,K,N*32
$GPGGA,080319.310,,,,,0,0,,,M,,M,,*49
$GPGSA,A,1,,,,,,,,,,,,,,,*1E
$GPRMC,080319.310,V,,,,,0.00,0.00,271119,,,N*41
$GPVTG,0.00,T,,M,0.00,N,0.00,K,N*32
$GPGGA,080320.310,,,,,0,0,,,M,,M,,*43
$GPGSA,A,1,,,,,,,,,,,,,,,*1E
$GPRMC,080320.310,V,,,,,0.00,0.00,271119,,,N*4B
$GPVTG,0.00,T,,M,0.00,N,0.00,K,N*32
$GPGGA,080321.310,,,,,0,0,,,M,,M,,*42
$GPGSA,A,1,,,,,,,,,,,,,,,*1E
$GPRMC,080321.310,V,,,,,0.00,0.00,271119,,,N*4A
$GPVTG,0.00,T,,M,0.00,N,0.00,K,N*32
$GPGGA,080322.310,,,,,0,0,,,M,,M,,*41
$GPGSA,A,1,,,,,,,,,,,,,,,*1E
$GPRMC,080322.310,V,,,,,0.00,0.00,271119,,,N*49
$GPVTG,0.00,T,,M,0.00,N,0.00,K,N*32
$GPGGA,080323.310,,,,,0,0,,,M,,M,,*40
$GPGSA,A,1,,,,,,,,,,,,,,,*1E
$GPGSV,3,1,10,01,,,20,22,,,18,31,,,20,14,,,17*73
$GPGSV,3,2,10,03,,,25,23,,,21,18,,,21,11,,,21*76
$GPGSV,3,3,10,19,,,22,17,,,25*71
$GPRMC,080323.310,V,,,,,0.00,0.00,271119,,,N*48
$GPVTG,0.00,T,,M,0.00,N,0.00,K,N*32
$GPGGA,080324.090,,,,,0,0,,,M,,M,,*4C
$GPGSA,A,1,,,,,,,,,,,,,,,*1E
$GPRMC,080324.090,V,,,,,0.00,0.00,271119,,,N*44
$GPVTG,0.00,T,,M,0.00,N,0.00,K,N*32
$GPGGA,080324.309,,,,,0,0,,,M,,M,,*4F
$GPGSA,A,1,,,,,,,,,,,,,,,*1E
$GPRMC,080324.309,V,,,,,0.00,0.00,271119,,,N*47
$GPVTG,0.00,T,,M,0.00,N,0.00,K,N*32
$GPGGA,080325.309,,,,,0,0,,,M,,M,,*4E
$GPGSA,A,1,,,,,,,,,,,,,,,*1E
$GPRMC,080325.309,V,,,,,0.00,0.00,271119,,,N*46
$GPVTG,0.00,T,,M,0.00,N,0.00,K,N*32
$GPGGA,080326.309,,,,,0,0,,,M,,M,,*4D
$GPGSA,A,1,,,,,,,,,,,,,,,*1E
$GPRMC,080326.309,V,,,,,0.00,0.00,271119,,,N*45
$GPVTG,0.00,T,,M,0.00,N,0.00,K,N*32
$GPGGA,080327.309,,,,,0,0,,,M,,M,,*4C
$GPGSA,A,1,,,,,,,,,,,,,,,*1E
$GPGSV,3,1,10,01,,,20,22,,,19,31,,,19,14,,,17*78
$GPGSV,3,2,10,03,,,23,23,,,20,18,,,21,11,,,25*75
$GPGSV,3,3,10,19,,,22,17,,,27*73
$GPRMC,080327.309,V,,,,,0.00,0.00,271119,,,N*44
$GPVTG,0.00,T,,M,0.00,N,0.00,K,N*32
$GPGGA,080328.309,,,,,0,0,,,M,,M,,*43
$GPGSA,A,1,,,,,,,,,,,,,,,*1E
$GPRMC,080328.309,V,,,,,0.00,0.00,271119,,,N*4B
$GPVTG,0.00,T,,M,0.00,N,0.00,K,N*32
$GPGGA,080329.309,,,,,0,0,,,M,,M,,*42
$GPGSA,A,1,,,,,,,,,,,,,,,*1E
$GPRMC,080329.309,V,,,,,0.00,0.00,271119,,,N*4A
$GPVTG,0.00,T,,M,0.00,N,0.00,K,N*32
$GPGGA,080330.090,,,,,0,0,,,M,,M,,*49
$GPGSA,A,1,,,,,,,,,,,,,,,*1E
$GPRMC,080330.090,V,,,,,0.00,0.00,271119,,,N*41
$GPVTG,0.00,T,,M,0.00,N,0.00,K,N*32
$GPGGA,080330.291,,,,,0,0,,,M,,M,,*4A
$GPGSA,A,1,,,,,,,,,,,,,,,*1E
$GPRMC,080330.291,V,,,,,0.00,0.00,271119,,,N*42
$GPVTG,0.00,T,,M,0.00,N,0.00,K,N*32
$GPGGA,080331.291,,,,,0,0,,,M,,M,,*4B
$GPGSA,A,1,,,,,,,,,,,,,,,*1E
$GPGSV,3,1,09,01,,,33,22,,,25,31,,,22,14,,,24*75
$GPGSV,3,2,09,03,,,38,18,,,30,11,,,40,19,,,38*74
$GPGSV,3,3,09,17,,,40*72
$GPRMC,080331.291,V,,,,,0.00,0.00,271119,,,N*43
$GPVTG,0.00,T,,M,0.00,N,0.00,K,N*32
$GPGGA,080332.291,,,,,0,0,,,M,,M,,*48
$GPGSA,A,1,,,,,,,,,,,,,,,*1E
$GPRMC,080332.291,V,,,,,0.00,0.00,271119,,,N*40
$GPVTG,0.00,T,,M,0.00,N,0.00,K,N*32
$GPGGA,080333.291,,,,,0,0,,,M,,M,,*49
$GPGSA,A,1,,,,,,,,,,,,,,,*1E
$GPRMC,080333.291,V,,,,,0.00,0.00,271119,,,N*41
$GPVTG,0.00,T,,M,0.00,N,0.00,K,N*32
$GPGGA,080334.291,,,,,0,0,,,M,,M,,*4E
$GPGSA,A,1,,,,,,,,,,,,,,,*1E
$GPRMC,080334.291,V,,,,,0.00,0.00,271119,,,N*46
$GPVTG,0.00,T,,M,0.00,N,0.00,K,N*32
$GPGGA,080335.291,,,,,0,0,,,M,,M,,*4F
$GPGSA,A,1,,,,,,,,,,,,,,,*1E
$GPRMC,080335.291,V,,,,,0.00,0.00,271119,,,N*47
$GPVTG,0.00,T,,M,0.00,N,0.00,K,N*32
$GPGGA,080336.090,,,,,0,0,,,M,,M,,*4F
$GPGSA,A,1,,,,,,,,,,,,,,,*1E
$GPGSV,3,1,10,01,,,34,22,,,27,31,,,27,14,,,25*7C
$GPGSV,3,2,10,03,,,39,23,,,24,18,,,29,11,,,39*7F
$GPGSV,3,3,10,19,,,35,17,,,39*7A
$GPRMC,080336.090,V,,,,,0.00,0.00,271119,,,N*47
$GPVTG,0.00,T,,M,0.00,N,0.00,K,N*32
$GPGGA,080336.309,,,,,0,0,,,M,,M,,*4C
$GPGSA,A,1,,,,,,,,,,,,,,,*1E
$GPRMC,080336.309,V,,,,,0.00,0.00,271119,,,N*44
$GPVTG,0.00,T,,M,0.00,N,0.00,K,N*32
$GPGGA,080337.309,,,,,0,0,,,M,,M,,*4D
$GPGSA,A,1,,,,,,,,,,,,,,,*1E
$GPRMC,080337.309,V,,,,,0.00,0.00,271119,,,N*45
$GPVTG,0.00,T,,M,0.00,N,0.00,K,N*32
$GPGGA,080338.309,,,,,0,0,,,M,,M,,*42
$GPGSA,A,1,,,,,,,,,,,,,,,*1E
$GPRMC,080338.309,V,,,,,0.00,0.00,271119,,,N*4A
$GPVTG,0.00,T,,M,0.00,N,0.00,K,N*32
$GPGGA,080339.309,,,,,0,0,,,M,,M,,*43
$GPGSA,A,1,,,,,,,,,,,,,,,*1E
$GPRMC,080339.309,V,,,,,0.00,0.00,271119,,,N*4B
$GPVTG,0.00,T,,M,0.00,N,0.00,K,N*32
$GPGGA,080340.309,,,,,0,0,,,M,,M,,*4D
$GPGSA,A,1,,,,,,,,,,,,,,,*1E
$GPGSV,3,1,10,01,,,33,22,,,28,31,,,27,14,,,25*74
$GPGSV,3,2,10,03,,,39,23,,,24,18,,,31,11,,,39*76
$GPGSV,3,3,10,19,,,35,17,,,38*7B
$GPRMC,080340.309,V,,,,,0.00,0.00,271119,,,N*45
$GPVTG,0.00,T,,M,0.00,N,0.00,K,N*32
$GPGGA,080341.309,,,,,0,0,,,M,,M,,*4C
$GPGSA,A,1,,,,,,,,,,,,,,,*1E
$GPRMC,080341.309,V,,,,,0.00,0.00,271119,,,N*44
$GPVTG,0.00,T,,M,0.00,N,0.00,K,N*32
$GPGGA,080342.088,,,,,0,0,,,M,,M,,*45
$GPGSA,A,1,,,,,,,,,,,,,,,*1E
$GPRMC,080342.088,V,,,,,0.00,0.00,271119,,,N*4D
$GPVTG,0.00,T,,M,0.00,N,0.00,K,N*32
$GPGGA,080342.309,,,,,0,0,,,M,,M,,*4F
$GPGSA,A,1,,,,,,,,,,,,,,,*1E
$GPRMC,080342.309,V,,,,,0.00,0.00,271119,,,N*47
$GPVTG,0.00,T,,M,0.00,N,0.00,K,N*32
$GPGGA,080343.309,,,,,0,0,,,M,,M,,*4E
$GPGSA,A,1,,,,,,,,,,,,,,,*1E
$GPRMC,080343.309,V,,,,,0.00,0.00,271119,,,N*46
$GPVTG,0.00,T,,M,0.00,N,0.00,K,N*32
$GPGGA,080344.309,,,,,0,0,,,M,,M,,*49
$GPGSA,A,1,,,,,,,,,,,,,,,*1E
$GPGSV,3,1,10,01,,,36,22,,,29,31,,,35,14,,,25*73
$GPGSV,3,2,10,03,,,39,23,,,30,18,,,32,11,,,40*7E
$GPGSV,3,3,10,19,,,35,17,,,39*7A
$GPRMC,080344.309,V,,,,,0.00,0.00,271119,,,N*41
$GPVTG,0.00,T,,M,0.00,N,0.00,K,N*32
$GPGGA,080345.309,,,,,0,0,,,M,,M,,*48
$GPGSA,A,1,,,,,,,,,,,,,,,*1E
$GPRMC,080345.309,V,,,,,0.00,0.00,271119,,,N*40
$GPVTG,0.00,T,,M,0.00,N,0.00,K,N*32
$GPGGA,080346.309,,,,,0,0,,,M,,M,,*4B
$GPGSA,A,1,,,,,,,,,,,,,,,*1E
$GPRMC,080346.309,V,,,,,0.00,0.00,271119,,,N*43
$GPVTG,0.00,T,,M,0.00,N,0.00,K,N*32
$GPGGA,080347.309,,,,,0,0,,,M,,M,,*4A
$GPGSA,A,1,,,,,,,,,,,,,,,*1E
$GPRMC,080347.309,V,,,,,0.00,0.00,271119,,,N*42
$GPVTG,0.00,T,,M,0.00,N,0.00,K,N*32
$GPGGA,080348.088,,,,,0,0,,,M,,M,,*4F
$GPGSA,A,1,,,,,,,,,,,,,,,*1E
$GPRMC,080348.088,V,,,,,0.00,0.00,271119,,,N*47
$GPVTG,0.00,T,,M,0.00,N,0.00,K,N*32
$GPGGA,080348.325,,,,,0,3,,,M,,M,,*48
$GPGSA,A,1,,,,,,,,,,,,,,,*1E
$GPGSV,3,1,09,01,,,29,22,,,28,31,,,28,14,,,24*79
$GPGSV,3,2,09,03,,,31,23,,,29,11,,,32,19,,,34*74
$GPGSV,3,3,09,17,,,31*74
$GPRMC,080348.325,V,,,,,0.00,0.00,271119,,,N*43
$GPVTG,0.00,T,,M,0.00,N,0.00,K,N*32
$GPGGA,080349.322,,,,,0,3,,,M,,M,,*4E
$GPGSA,A,1,,,,,,,,,,,,,,,*1E
$GPRMC,080349.322,V,,,,,0.00,0.00,271119,,,N*45
$GPVTG,0.00,T,,M,0.00,N,0.00,K,N*32
$GPGGA,080350.323,,,,,0,3,,,M,,M,,*47
$GPGSA,A,1,,,,,,,,,,,,,,,*1E
$GPRMC,080350.323,V,,,,,0.00,0.00,271119,,,N*4C
$GPVTG,0.00,T,,M,0.00,N,0.00,K,N*32
$GPGGA,080351.323,,,,,0,3,,,M,,M,,*46
$GPGSA,A,1,,,,,,,,,,,,,,,*1E
$GPRMC,080351.323,V,,,,,22.37,145.38,271119,,,N*72
$GPVTG,145.38,T,,M,22.37,N,41.44,K,N*38
$GPGGA,080352.323,,,,,0,3,,,M,,M,,*45
$GPGSA,A,1,,,,,,,,,,,,,,,*1E
$GPRMC,080352.323,V,,,,,0.41,92.03,271119,,,N*73
$GPVTG,92.03,T,,M,0.41,N,0.77,K,N*0F
$GPGGA,080353.323,,,,,0,3,,,M,,M,,*44
$GPGSA,A,1,,,,,,,,,,,,,,,*1E
$GPGSV,3,1,09,01,,,31,22,,,26,31,,,27,14,,,27*72
$GPGSV,3,2,09,03,,,34,23,,,41,11,,,36,19,,,32*7D
$GPGSV,3,3,09,17,,,41*73
$GPRMC,080353.323,V,,,,,0.13,260.67,271119,,,N*48
$GPVTG,260.67,T,,M,0.13,N,0.25,K,N*32
$GPGGA,080354.092,,,,,0,5,,,M,,M,,*4C
$GPGSA,A,1,,,,,,,,,,,,,,,*1E
$GPRMC,080354.092,V,,,,,1.89,252.46,271119,,,N*46
$GPVTG,252.46,T,,M,1.89,N,3.51,K,N*32
$GPGGA,080355.092,4913.6150,N,01634.4185,E,1,5,3.63,292.7,M,43.5,M,,*56
$GPGSA,A,3,03,23,11,19,17,,,,,,,,3.75,3.63,0.93*03
$GPRMC,080355.092,A,4913.6150,N,01634.4185,E,1.66,253.58,271119,,,A*6E
$GPVTG,253.58,T,,M,1.66,N,3.08,K,A*3E
$GPGGA,080357.000,4913.6145,N,01634.4178,E,1,5,3.63,290.4,M,43.5,M,,*58
$GPGSA,A,3,03,23,11,19,17,,,,,,,,3.74,3.63,0.93*02
$GPRMC,080357.000,A,4913.6145,N,01634.4178,E,1.03,255.95,271119,,,A*65
$GPVTG,255.95,T,,M,1.03,N,1.91,K,A*38
$GPGGA,080358.000,4913.6146,N,01634.4187,E,1,5,3.63,289.0,M,43.5,M,,*58
$GPGSA,A,3,03,23,11,19,17,,,,,,,,3.74,3.63,0.93*02
$GPRMC,080358.000,A,4913.6146,N,01634.4187,E,0.51,258.70,271119,,,A*69
$GPVTG,258.70,T,,M,0.51,N,0.95,K,A*3D
$GPGGA,080359.000,4913.6144,N,01634.4188,E,1,5,3.62,288.6,M,43.5,M,,*52
$GPGSA,A,3,03,23,11,19,17,,,,,,,,3.74,3.62,0.93*03
$GPGSV,3,1,11,03,64,276,34,11,54,185,36,17,34,303,39,37,33,173,*7C
$GPGSV,3,2,11,23,28,205,40,19,20,319,32,08,03,182,,01,,,32*40
$GPGSV,3,3,11,22,,,27,31,,,28,14,,,28*7B
$GPRMC,080359.000,A,4913.6144,N,01634.4188,E,0.45,252.92,271119,,,A*66
$GPVTG,252.92,T,,M,0.45,N,0.83,K,A*39
$GPGGA,080400.000,4913.6142,N,01634.4188,E,1,5,3.63,288.3,M,43.5,M,,*5B
$GPGSA,A,3,03,23,11,19,17,,,,,,,,3.74,3.63,0.93*02
$GPRMC,080400.000,A,4913.6142,N,01634.4188,E,0.13,225.36,271119,,,A*66
$GPVTG,225.36,T,,M,0.13,N,0.23,K,A*3E
$GPGGA,080401.000,4913.6141,N,01634.4189,E,1,6,2.13,287.3,M,43.5,M,,*52
$GPGSA,A,3,01,03,23,11,19,17,,,,,,,2.33,2.13,0.93*07
$GPRMC,080401.000,A,4913.6141,N,01634.4189,E,0.26,244.51,271119,,,A*65
$GPVTG,244.51,T,,M,0.26,N,0.48,K,A*33
$GPGGA,080402.000,4913.6141,N,01634.4197,E,1,6,2.13,286.7,M,43.5,M,,*5B
$GPGSA,A,3,01,03,23,11,19,17,,,,,,,2.33,2.13,0.93*07
$GPRMC,080402.000,A,4913.6141,N,01634.4197,E,0.27,62.04,271119,,,A*5E
$GPVTG,62.04,T,,M,0.27,N,0.49,K,A*05
$GPGGA,080403.000,4913.6141,N,01634.4199,E,1,6,2.13,286.7,M,43.5,M,,*54
$GPGSA,A,3,01,03,23,11,19,17,,,,,,,2.33,2.13,0.93*07
$GPRMC,080403.000,A,4913.6141,N,01634.4199,E,0.41,49.22,271119,,,A*5C
$GPVTG,49.22,T,,M,0.41,N,0.77,K,A*05
$GPGGA,080404.000,4913.6141,N,01634.4200,E,1,6,2.13,286.6,M,43.5,M,,*51
$GPGSA,A,3,01,03,23,11,19,17,,,,,,,2.33,2.13,0.93*07
$GPGSV,3,1,11,01,75,146,33,03,64,276,36,11,54,185,38,17,34,303,39*71
$GPGSV,3,2,11,39,32,168,,23,28,205,41,19,20,319,34,08,03,182,*73
$GPGSV,3,3,11,22,,,27,31,,,28,14,,,28*7B
$GPRMC,080404.000,A,4913.6141,N,01634.4200,E,0.26,47.52,271119,,,A*50
$GPVTG,47.52,T,,M,0.26,N,0.47,K,A*0E
$GPGGA,080405.000,4913.6140,N,01634.4198,E,1,6,2.13,286.6,M,43.5,M,,*53
$GPGSA,A,3,01,03,23,11,19,17,,,,,,,2.33,2.13,0.93*07
$GPRMC,080405.000,A,4913.6140,N,01634.4198,E,0.18,67.50,271119,,,A*5F
$GPVTG,67.50,T,,M,0.18,N,0.34,K,A*07
$GPGGA,080406.000,4913.6140,N,01634.4197,E,1,6,2.13,286.7,M,43.5,M,,*5E
$GPGSA,A,3,01,03,23,11,19,17,,,,,,,2.32,2.13,0.93*06
$GPRMC,080406.000,A,4913.6140,N,01634.4197,E,0.12,64.33,271119,,,A*5F
$GPVTG,64.33,T,,M,0.12,N,0.23,K,A*0D
$GPGGA,080407.000,4913.6140,N,01634.4193,E,1,6,2.13,287.2,M,43.5,M,,*5F
$GPGSA,A,3,01,03,23,11,19,17,,,,,,,2.32,2.13,0.93*06
$GPRMC,080407.000,A,4913.6140,N,01634.4193,E,0.29,46.33,271119,,,A*52
$GPVTG,46.33,T,,M,0.29,N,0.53,K,A*02
$GPGGA,080408.000,4913.6140,N,01634.4193,E,1,6,2.13,287.3,M,43.5,M,,*51
$GPGSA,A,3,01,03,23,11,19,17,,,,,,,2.32,2.13,0.93*06
$GPRMC,080408.000,A,4913.6140,N,01634.4193,E,0.32,46.04,271119,,,A*53
$GPVTG,46.04,T,,M,0.32,N,0.60,K,A*0C
$GPGGA,080409.000,4913.6140,N,01634.4190,E,1,6,2.13,287.1,M,43.5,M,,*51
$GPGSA,A,3,01,03,23,11,19,17,,,,,,,2.33,2.13,0.93*07
$GPGSV,3,1,11,01,75,146,34,03,64,276,37,11,54,185,39,17,34,303,37*78
$GPGSV,3,2,11,39,32,168,,23,28,205,42,31,24,092,29,19,20,319,36*76
$GPGSV,3,3,11,08,03,182,,22,,,27,14,,,28*43
$GPRMC,080409.000,A,4913.6140,N,01634.4190,E,0.26,66.75,271119,,,A*50
$GPVTG,66.75,T,,M,0.26,N,0.48,K,A*07
$GPGGA,080410.000,4913.6141,N,01634.4190,E,1,6,2.13,286.7,M,43.5,M,,*5F
$GPGSA,A,3,01,03,23,11,19,17,,,,,,,2.33,2.13,0.94*00
$GPRMC,080410.000,A,4913.6141,N,01634.4190,E,0.25,53.30,271119,,,A*5D
$GPVTG,53.30,T,,M,0.25,N,0.46,K,A*0D
$GPGGA,080411.000,4913.6141,N,01634.4189,E,1,6,2.13,286.7,M,43.5,M,,*56
$GPGSA,A,3,01,03,23,11,19,17,,,,,,,2.33,2.13,0.94*00
$GPRMC,080411.000,A,4913.6141,N,01634.4189,E,0.16,59.58,271119,,,A*50
$GPVTG,59.58,T,,M,0.16,N,0.29,K,A*00
$GPGGA,080412.000,4913.6141,N,01634.4189,E,1,6,2.13,286.6,M,43.5,M,,*54
$GPGSA,A,3,01,03,23,11,19,17,,,,,,,2.33,2.13,0.94*00
$GPRMC,080412.000,A,4913.6141,N,01634.4189,E,0.14,30.87,271119,,,A*5C
$GPVTG,30.87,T,,M,0.14,N,0.26,K,A*00
$GPGGA,080413.000,4913.6142,N,01634.4190,E,1,6,2.13,286.6,M,43.5,M,,*5E
$GPGSA,A,3,01,03,23,11,19,17,,,,,,,2.33,2.13,0.94*00
$GPRMC,080413.000,A,4913.6142,N,01634.4190,E,0.24,36.34,271119,,,A*5B
$GPVTG,36.34,T,,M,0.24,N,0.45,K,A*08
$GPGGA,080414.000,4913.6141,N,01634.4190,E,1,6,2.13,286.7,M,43.5,M,,*5B
$GPGSA,A,3,01,03,23,11,19,17,,,,,,,2.32,2.13,0.94*01
$GPGSV,3,1,12,01,75,146,23,03,64,276,27,11,54,185,28,17,34,303,27*7D
$GPGSV,3,2,12,23,28,205,32,33,25,219,,31,24,092,21,19,20,319,27*73
$GPGSV,3,3,12,08,03,182,,09,01,213,,22,,,17,14,,,18*78
$GPRMC,080414.000,A,4913.6141,N,01634.4190,E,0.16,89.50,271119,,,A*58
$GPVTG,89.50,T,,M,0.16,N,0.29,K,A*05
$GPGGA,080415.000,4913.6141,N,01634.4192,E,1,6,2.13,286.7,M,43.5,M,,*58
$GPGSA,A,3,01,03,23,11,19,17,,,,,,,2.33,2.13,0.94*00
$GPRMC,080415.000,A,4913.6141,N,01634.4192,E,0.29,109.76,271119,,,A*6A
$GPVTG,109.76,T,,M,0.29,N,0.54,K,A*3E
$GPGGA,080416.000,4913.6143,N,01634.4191,E,1,6,2.13,286.9,M,43.5,M,,*54
$GPGSA,A,3,01,03,23,11,19,17,,,,,,,2.33,2.13,0.94*00
$GPRMC,080416.000,A,4913.6143,N,01634.4191,E,0.53,60.42,271119,,,A*5C
$GPVTG,60.42,T,,M,0.53,N,0.99,K,A*0B
$GPGGA,080417.000,4913.6143,N,01634.4187,E,1,6,2.13,287.2,M,43.5,M,,*58
$GPGSA,A,3,01,03,23,11,19,17,,,,,,,2.32,2.13,0.94*01
$GPRMC,080417.000,A,4913.6143,N,01634.4187,E,0.38,66.62,271119,,,A*53
$GPVTG,66.62,T,,M,0.38,N,0.70,K,A*05
$GPGGA,080418.000,4913.6144,N,01634.4184,E,1,6,2.13,287.4,M,43.5,M,,*55
$GPGSA,A,3,01,03,23,11,19,17,,,,,,,2.32,2.13,0.94*01
$GPRMC,080418.000,A,4913.6144,N,01634.4184,E,0.44,38.52,271119,,,A*5B
$GPVTG,38.52,T,,M,0.44,N,0.81,K,A*08
$GPGGA,080419.000,4913.6145,N,01634.4186,E,1,6,2.13,287.6,M,43.5,M,,*55
$GPGSA,A,3,01,03,23,11,19,17,,,,,,,2.33,2.13,0.94*00
$GPGSV,3,1,12,01,75,146,24,03,64,276,29,11,54,185,29,17,34,303,32*71
$GPGSV,3,2,12,23,28,205,34,33,25,219,,31,24,092,21,19,21,319,28*7B
$GPGSV,3,3,12,08,03,182,,09,01,213,,22,,,19,14,,,21*7C
$GPRMC,080419.000,A,4913.6145,N,01634.4186,E,0.48,53.70,271119,,,A*58
$GPVTG,53.70,T,,M,0.48,N,0.89,K,A*01
$GPGGA,080420.000,4913.6144,N,01634.4186,E,1,6,2.13,287.6,M,43.5,M,,*5E
$GPGSA,A,3,01,03,23,11,19,17,,,,,,,2.32,2.13,0.94*01
$GPRMC,080420.000,A,4913.6144,N,01634.4186,E,0.28,69.89,271119,,,A*5A
$GPVTG,69.89,T,,M,0.28,N,0.52,K,A*0E
$GPGGA,080421.000,4913.6145,N,01634.4187,E,1,6,2.13,287.9,M,43.5,M,,*50
$GPGSA,A,3,01,03,23,11,19,17,,,,,,,2.32,2.13,0.94*01
$GPRMC,080421.000,A,4913.6145,N,01634.4187,E,0.34,56.89,271119,,,A*5A
$GPVTG,56.89,T,,M,0.34,N,0.63,K,A*0D
$GPGGA,080422.000,4913.6145,N,01634.4184,E,1,6,2.13,288.1,M,43.5,M,,*57
$GPGSA,A,3,01,03,23,11,19,17,,,,,,,2.32,2.13,0.94*01
$GPRMC,080422.000,A,4913.6145,N,01634.4184,E,0.14,55.55,271119,,,A*5A
$GPVTG,55.55,T,,M,0.14,N,0.27,K,A*0D
$GPGGA,080423.000,4913.6146,N,01634.4190,E,1,6,2.13,288.2,M,43.5,M,,*53
$GPGSA,A,3,01,03,23,11,19,17,,,,,,,2.32,2.13,0.94*01
$GPRMC,080423.000,A,4913.6146,N,01634.4190,E,0.30,70.31,271119,,,A*5E
$GPVTG,70.31,T,,M,0.30,N,0.55,K,A*0B
$GPGGA,080424.000,4913.6146,N,01634.4188,E,1,6,2.13,288.2,M,43.5,M,,*5D
$GPGSA,A,3,01,03,23,11,19,17,,,,,,,2.33,2.13,0.94*00
$GPGSV,3,1,12,01,75,146,25,03,64,276,30,11,54,185,29,17,34,303,32*78
$GPGSV,3,2,12,23,28,205,22,31,24,092,22,19,21,319,28,40,17,124,*77
$GPGSV,3,3,12,08,03,182,,09,01,213,,22,,,20,14,,,21*76
$GPRMC,080424.000,A,4913.6146,N,01634.4188,E,0.31,43.32,271119,,,A*52
$GPVTG,43.32,T,,M,0.31,N,0.57,K,A*0B
$GPGGA,080425.000,4913.6148,N,01634.4199,E,1,6,2.13,287.8,M,43.5,M,,*57
$GPGSA,A,3,01,03,23,11,19,17,,,,,,,2.32,2.13,0.94*01
$GPRMC,080425.000,A,4913.6148,N,01634.4199,E,0.59,70.24,271119,,,A*54
$GPVTG,70.24,T,,M,0.59,N,1.10,K,A*00
$GPGGA,080426.000,4913.6148,N,01634.4195,E,1,6,2.13,287.8,M,43.5,M,,*58
$GPGSA,A,3,01,03,23,11,19,17,,,,,,,2.32,2.13,0.94*01
$GPRMC,080426.000,A,4913.6148,N,01634.4195,E,0.34,58.98,271119,,,A*5D
$GPVTG,58.98,T,,M,0.34,N,0.63,K,A*03
$GPGGA,080427.000,4913.6148,N,01634.4191,E,1,6,2.13,287.6,M,43.5,M,,*53
$GPGSA,A,3,01,03,23,11,19,17,,,,,,,2.32,2.13,0.94*01
$GPRMC,080427.000,A,4913.6148,N,01634.4191,E,0.17,335.67,271119,,,A*61
$GPVTG,335.67,T,,M,0.17,N,0.32,K,A*3E
$GPGGA,080428.000,4913.6149,N,01634.4191,E,1,6,2.13,287.4,M,43.5,M,,*5F
$GPGSA,A,3,01,03,23,11,19,17,,,,,,,2.33,2.13,0.94*00
$GPRMC,080428.000,A,4913.6149,N,01634.4191,E,0.17,330.43,271119,,,A*6C
$GPVTG,330.43,T,,M,0.17,N,0.31,K,A*3E
$GPGGA,080429.000,4913.6149,N,01634.4193,E,1,6,2.13,287.2,M,43.5,M,,*5A
$GPGSA,A,3,01,03,23,11,19,17,,,,,,,2.32,2.13,0.94*01
$GPGSV,3,1,12,01,75,146,29,03,64,276,35,11,54,185,19,17,34,303,26*77
$GPGSV,3,2,12,23,28,205,27,31,24,092,36,19,21,319,23,40,17,124,*7C
$GPGSV,3,3,12,08,03,182,,09,01,213,,22,,,20,14,,,24*73
$GPRMC,080429.000,A,4913.6149,N,01634.4193,E,0.17,344.91,271119,,,A*63
$GPVTG,344.91,T,,M,0.17,N,0.31,K,A*32
$GPGGA,080430.000,4913.6150,N,01634.4192,E,1,6,2.13,287.2,M,43.5,M,,*5B
$GPGSA,A,3,01,03,23,11,19,17,,,,,,,2.32,2.13,0.94*01
$GPRMC,080430.000,A,4913.6150,N,01634.4192,E,0.13,12.76,271119,,,A*5F
$GPVTG,12.76,T,,M,0.13,N,0.24,K,A*0B
$GPGGA,080431.000,4913.6150,N,01634.4193,E,1,6,2.68,287.2,M,43.5,M,,*57
$GPGSA,A,3,01,03,23,11,19,17,,,,,,,3.77,2.68,2.65*01
$GPRMC,080431.000,A,4913.6150,N,01634.4193,E,0.17,32.96,271119,,,A*57
$GPVTG,32.96,T,,M,0.17,N,0.32,K,A*04
$GPGGA,080432.000,4913.6150,N,01634.4193,E,1,6,2.13,287.2,M,43.5,M,,*58
$GPGSA,A,3,01,03,23,11,19,17,,,,,,,2.33,2.13,0.94*00
$GPRMC,080432.000,A,4913.6150,N,01634.4193,E,0.03,129.23,271119,,,A*64
$GPVTG,129.23,T,,M,0.03,N,0.05,K,A*30
$GPGGA,080433.000,4913.6150,N,01634.4193,E,1,6,2.13,287.2,M,43.5,M,,*59
$GPGSA,A,3,01,03,23,11,19,17,,,,,,,2.32,2.13,0.94*01
$GPRMC,080433.000,A,4913.6150,N,01634.4193,E,0.18,232.56,271119,,,A*64
$GPVTG,232.56,T,,M,0.18,N,0.33,K,A*34
$GPGGA,080434.000,4913.6150,N,01634.4192,E,1,6,2.13,287.2,M,43.5,M,,*5F
$GPGSA,A,3,01,03,23,11,19,17,,,,,,,2.33,2.13,0.94*00
$GPGSV,3,1,12,01,75,146,27,03,64,276,34,11,54,185,19,17,34,303,26*78
$GPGSV,3,2,12,23,28,205,27,31,24,092,36,19,21,319,23,44,17,123,*7F
$GPGSV,3,3,12,08,03,182,,09,01,213,,22,,,20,14,,,25*72
$GPRMC,080434.000,A,4913.6150,N,01634.4192,E,0.31,235.11,271119,,,A*6D
$GPVTG,235.11,T,,M,0.31,N,0.58,K,A*36
$GPGGA,080435.000,4913.6149,N,01634.4191,E,1,6,2.13,287.2,M,43.5,M,,*55
$GPGSA,A,3,01,03,23,11,19,17,,,,,,,2.33,2.13,0.94*00
$GPRMC,080435.000,A,4913.6149,N,01634.4191,E,0.22,239.40,271119,,,A*6D
$GPVTG,239.40,T,,M,0.22,N,0.41,K,A*34
$GPGGA,080436.000,4913.6149,N,01634.4191,E,1,6,2.13,287.2,M,43.5,M,,*56
$GPGSA,A,3,01,03,23,11,19,17,,,,,,,2.33,2.13,0.94*00
$GPRMC,080436.000,A,4913.6149,N,01634.4191,E,0.29,235.93,271119,,,A*67
$GPVTG,235.93,T,,M,0.29,N,0.55,K,A*38
$GPGGA,080437.000,4913.6149,N,01634.4189,E,1,6,2.13,287.2,M,43.5,M,,*5E
$GPGSA,A,3,01,03,23,11,19,17,,,,,,,2.33,2.13,0.94*00
$GPRMC,080437.000,A,4913.6149,N,01634.4189,E,0.34,237.63,271119,,,A*6E
$GPVTG,237.63,T,,M,0.34,N,0.63,K,A*3C
$GPGGA,080438.000,4913.6148,N,01634.4188,E,1,6,2.13,287.2,M,43.5,M,,*51
$GPGSA,A,3,01,03,23,11,19,17,,,,,,,2.32,2.13,0.94*01
$GPRMC,080438.000,A,4913.6148,N,01634.4188,E,0.39,239.91,271119,,,A*6F
$GPVTG,239.91,T,,M,0.39,N,0.72,K,A*32
$GPGGA,080439.000,4913.6148,N,01634.4187,E,1,6,2.13,287.2,M,43.5,M,,*5F
$GPGSA,A,3,01,03,23,11,19,17,,,,,,,2.33,2.13,0.94*00
$GPGSV,4,1,13,01,75,146,28,03,64,276,34,11,54,185,20,17,34,303,26*7B
$GPGSV,4,2,13,23,28,205,26,31,24,092,35,19,21,319,24,44,17,123,*7C
$GPGSV,4,3,13,32,16,046,,08,03,182,,09,01,213,,22,,,21*43
$GPGSV,4,4,13,14,,,25*79
$GPRMC,080439.000,A,4913.6148,N,01634.4187,E,0.33,237.03,271119,,,A*6E
$GPVTG,237.03,T,,M,0.33,N,0.61,K,A*3F
$GPGGA,080440.000,4913.6147,N,01634.4186,E,1,6,2.13,287.2,M,43.5,M,,*5F
$GPGSA,A,3,01,03,23,11,19,17,,,,,,,2.32,2.13,0.94*01
$GPRMC,080440.000,A,4913.6147,N,01634.4186,E,0.15,233.05,271119,,,A*68
$GPVTG,233.05,T,,M,0.15,N,0.28,K,A*34
$GPGGA,080441.000,4913.6147,N,01634.4185,E,1,6,2.13,287.1,M,43.5,M,,*5E
$GPGSA,A,3,01,03,23,11,19,17,,,,,,,2.32,2.13,0.94*01
$GPRMC,080441.000,A,4913.6147,N,01634.4185,E,0.18,270.14,271119,,,A*60
$GPVTG,270.14,T,,M,0.18,N,0.33,K,A*34
$GPGGA,080442.000,4913.6147,N,01634.4185,E,1,6,2.13,287.1,M,43.5,M,,*5D
$GPGSA,A,3,01,03,23,11,19,17,,,,,,,2.33,2.13,0.94*00
$GPRMC,080442.000,A,4913.6147,N,01634.4185,E,0.04,250.04,271119,,,A*6D
$GPVTG,250.04,T,,M,0.04,N,0.07,K,A*3D
$GPGGA,080443.000,4913.6147,N,01634.4184,E,1,6,2.13,287.1,M,43.5,M,,*5D
$GPGSA,A,3,01,03,23,11,19,17,,,,,,,2.32,2.13,0.94*01
$GPRMC,080443.000,A,4913.6147,N,01634.4184,E,0.08,118.00,271119,,,A*6A
$GPVTG,118.00,T,,M,0.08,N,0.16,K,A*3A
$GPGGA,080444.000,4913.6147,N,01634.4185,E,1,6,2.13,287.1,M,43.5,M,,*5B
$GPGSA,A,3,01,03,23,11,19,17,,,,,,,2.33,2.13,0.94*00
$GPGSV,4,1,13,01,75,146,29,03,64,276,33,11,54,185,24,17,34,303,29*76
$GPGSV,4,2,13,37,33,173,,23,28,205,21,31,24,092,27,19,21,319,25*7E
$GPGSV,4,3,13,32,16,046,,08,03,182,,09,01,213,,22,,,23*41
$GPGSV,4,4,13,14,,,24*78
$GPRMC,080444.000,A,4913.6147,N,01634.4185,E,0.19,321.45,271119,,,A*65
$GPVTG,321.45,T,,M,0.19,N,0.36,K,A*31
$GPGGA,080445.000,4913.6147,N,01634.4184,E,1,6,2.13,287.1,M,43.5,M,,*5B
$GPGSA,A,3,01,03,23,11,19,17,,,,,,,2.33,2.13,0.94*00
$GPRMC,080445.000,A,4913.6147,N,01634.4184,E,0.59,317.31,271119,,,A*67
$GPVTG,317.31,T,,M,0.59,N,1.10,K,A*36
$GPGGA,080446.000,4913.6154,N,01634.4180,E,1,6,2.13,287.1,M,43.5,M,,*5E
$GPGSA,A,3,01,03,23,11,19,17,,,,,,,2.33,2.13,0.94*00
$GPRMC,080446.000,A,4913.6154,N,01634.4180,E,1.07,333.18,271119,,,A*65
$GPVTG,333.18,T,,M,1.07,N,1.98,K,A*31
$GPGGA,080447.000,4913.6163,N,01634.4176,E,1,6,2.13,287.1,M,43.5,M,,*52
$GPGSA,A,3,01,03,23,11,19,17,,,,,,,2.32,2.13,0.94*01
$GPRMC,080447.000,A,4913.6163,N,01634.4176,E,1.63,340.07,271119,,,A*61
$GPVTG,340.07,T,,M,1.63,N,3.01,K,A*3B
$GPGGA,080448.000,4913.6171,N,01634.4169,E,1,6,2.13,287.1,M,43.5,M,,*50
$GPGSA,A,3,01,03,23,11,19,17,,,,,,,2.32,2.13,0.94*01
$GPRMC,080448.000,A,4913.6171,N,01634.4169,E,2.00,337.57,271119,,,A*60
$GPVTG,337.57,T,,M,2.00,N,3.71,K,A*3F
$GPGGA,080449.000,4913.6176,N,01634.4162,E,1,6,2.13,287.0,M,43.5,M,,*5C
$GPGSA,A,3,01,03,23,11,19,17,,,,,,,2.32,2.13,0.94*01
$GPGSV,4,1,13,01,75,146,33,03,64,276,32,11,54,185,26,17,34,303,28*7F
$GPGSV,4,2,13,37,33,173,,23,28,205,30,31,24,092,26,19,21,319,19*70
$GPGSV,4,3,13,32,16,046,,08,03,182,,09,01,213,,22,,,23*41
$GPGSV,4,4,13,14,,,29*75
$GPRMC,080449.000,A,4913.6176,N,01634.4162,E,2.05,332.62,271119,,,A*6B
$GPVTG,332.62,T,,M,2.05,N,3.80,K,A*37
$GPGGA,080450.000,4913.6183,N,01634.4158,E,1,6,2.13,287.0,M,43.5,M,,*57
$GPGSA,A,3,01,03,23,11,19,17,,,,,,,2.32,2.13,0.94*01
$GPRMC,080450.000,A,4913.6183,N,01634.4158,E,2.16,334.45,271119,,,A*61
$GPVTG,334.45,T,,M,2.16,N,4.01,K,A*38
$GPGGA,080451.000,4913.6192,N,01634.4156,E,1,6,2.13,287.0,M,43.5,M,,*58
$GPGSA,A,3,01,03,23,11,19,17,,,,,,,2.32,2.13,0.94*01
$GPRMC,080451.000,A,4913.6192,N,01634.4156,E,2.41,338.72,271119,,,A*64
$GPVTG,338.72,T,,M,2.41,N,4.47,K,A*30
$GPGGA,080452.000,4913.6200,N,01634.4153,E,1,6,2.13,287.1,M,43.5,M,,*57
$GPGSA,A,3,01,03,23,11,19,17,,,,,,,2.32,2.13,0.94*01
$GPRMC,080452.000,A,4913.6200,N,01634.4153,E,2.62,340.35,271119,,,A*67
$GPVTG,340.35,T,,M,2.62,N,4.85,K,A*33
$GPGGA,080453.000,4913.6209,N,01634.4149,E,1,6,2.13,287.1,M,43.5,M,,*54
$GPGSA,A,3,01,03,23,11,19,17,,,,,,,2.32,2.13,0.94*01
$GPRMC,080453.000,A,4913.6209,N,01634.4149,E,2.69,340.62,271119,,,A*6D
$GPVTG,340.62,T,,M,2.69,N,4.98,K,A*36
$GPGGA,080454.000,4913.6219,N,01634.4144,E,1,6,2.13,287.1,M,43.5,M,,*5F
$GPGSA,A,3,01,03,23,11,19,17,,,,,,,2.32,2.13,0.94*01
$GPGSV,4,1,13,01,75,146,31,03,64,276,25,11,54,185,31,17,34,302,21*75
$GPGSV,4,2,13,39,32,168,,23,28,205,30,31,24,092,14,19,21,319,16*7B
$GPGSV,4,3,13,32,16,046,,08,03,182,,09,01,213,,22,,,25*47
$GPGSV,4,4,13,14,,,29*75
$GPRMC,080454.000,A,4913.6219,N,01634.4144,E,3.47,339.04,271119,,,A*65
$GPVTG,339.04,T,,M,3.47,N,6.42,K,A*30
$GPGGA,080455.000,4913.6232,N,01634.4146,E,1,8,1.16,286.7,M,43.5,M,,*5A
$GPGSA,A,3,01,22,14,03,23,11,19,17,,,,,1.45,1.16,0.88*0C
$GPRMC,080455.000,A,4913.6232,N,01634.4146,E,3.82,337.93,271119,,,A*66
$GPVTG,337.93,T,,M,3.82,N,7.08,K,A*36
$GPGGA,080456.000,4913.6242,N,01634.4151,E,1,8,1.16,286.2,M,43.5,M,,*5D
$GPGSA,A,3,01,22,14,03,23,11,19,17,,,,,1.45,1.16,0.88*0C
$GPRMC,080456.000,A,4913.6242,N,01634.4151,E,3.15,336.80,271119,,,A*69
$GPVTG,336.80,T,,M,3.15,N,5.83,K,A*3A
$GPGGA,080457.000,4913.6250,N,01634.4150,E,1,8,1.15,286.0,M,43.5,M,,*5F
$GPGSA,A,3,01,22,14,03,23,11,19,17,,,,,1.45,1.15,0.88*0F
$GPRMC,080457.000,A,4913.6250,N,01634.4150,E,2.65,323.54,271119,,,A*61
$GPVTG,323.54,T,,M,2.65,N,4.91,K,A*33
$GPGGA,080458.000,4913.6259,N,01634.4145,E,1,8,1.16,286.0,M,43.5,M,,*5E
$GPGSA,A,3,01,22,14,03,23,11,19,17,,,,,1.45,1.16,0.88*0C
$GPRMC,080458.000,A,4913.6259,N,01634.4145,E,3.04,339.31,271119,,,A*6D
$GPVTG,339.31,T,,M,3.04,N,5.63,K,A*31
$GPGGA,080459.000,4913.6270,N,01634.4141,E,1,8,1.16,286.0,M,43.5,M,,*50
$GPGSA,A,3,01,22,14,03,23,11,19,17,,,,,1.45,1.16,0.88*0C
$GPGSV,4,1,13,22,85,354,26,01,75,146,31,03,64,276,27,11,54,185,32*7C
$GPGSV,4,2,13,14,42,058,29,17,34,302,22,23,28,205,29,33,25,219,*72
$GPGSV,4,3,13,31,24,092,14,19,21,319,17,32,16,046,,08,03,182,*74
$GPGSV,4,4,13,09,01,213,*43
$GPRMC,080459.000,A,4913.6270,N,01634.4141,E,3.62,336.14,271119,,,A*6B
$GPVTG,336.14,T,,M,3.62,N,6.70,K,A*38
$GPGGA,080500.000,4913.6277,N,01634.4139,E,1,8,1.16,286.0,M,43.5,M,,*55
$GPGSA,A,3,01,22,14,03,23,11,19,17,,,,,1.45,1.16,0.88*0C
$GPRMC,080500.000,A,4913.6277,N,01634.4139,E,2.54,340.98,271119,,,A*6F
$GPVTG,340.98,T,,M,2.54,N,4.71,K,A*3A
$GPGGA,080501.000,4913.6283,N,01634.4139,E,1,8,1.16,285.8,M,43.5,M,,*54
$GPGSA,A,3,01,22,14,03,23,11,19,17,,,,,1.45,1.16,0.88*0C
$GPRMC,080501.000,A,4913.6283,N,01634.4139,E,2.78,340.24,271119,,,A*6C
$GPVTG,340.24,T,,M,2.78,N,5.15,K,A*30
$GPGGA,080502.000,4913.6291,N,01634.4138,E,1,8,1.15,285.6,M,43.5,M,,*58
$GPGSA,A,3,01,22,14,03,23,11,19,17,,,,,1.45,1.15,0.88*0F
$GPRMC,080502.000,A,4913.6291,N,01634.4138,E,2.95,343.66,271119,,,A*6B
$GPVTG,343.66,T,,M,2.95,N,5.47,K,A*31
$GPGGA,080503.000,4913.6299,N,01634.4133,E,1,8,1.16,285.4,M,43.5,M,,*5B
$GPGSA,A,3,01,22,14,03,23,11,19,17,,,,,1.45,1.16,0.88*0C
$GPRMC,080503.000,A,4913.6299,N,01634.4133,E,3.24,337.42,271119,,,A*67
$GPVTG,337.42,T,,M,3.24,N,6.00,K,A*3F
$GPGGA,080504.000,4913.6308,N,01634.4130,E,1,8,1.15,285.3,M,43.5,M,,*52
$GPGSA,A,3,01,22,14,03,23,11,19,17,,,,,1.45,1.15,0.88*0F
$GPGSV,4,1,13,22,85,354,24,01,75,146,29,03,64,276,34,11,54,185,26*70
$GPGSV,4,2,13,14,42,058,27,17,34,302,23,23,28,205,29,33,25,219,*7D
$GPGSV,4,3,13,31,24,092,15,19,21,319,16,32,16,046,,08,03,182,*74
$GPGSV,4,4,13,09,01,213,*43
$GPRMC,080504.000,A,4913.6308,N,01634.4130,E,3.32,341.48,271119,,,A*66
$GPVTG,341.48,T,,M,3.32,N,6.16,K,A*34
$GPGGA,080505.000,4913.6318,N,01634.4123,E,1,8,1.16,285.2,M,43.5,M,,*52
$GPGSA,A,3,01,22,14,03,23,11,19,17,,,,,1.45,1.16,0.88*0C
$GPRMC,080505.000,A,4913.6318,N,01634.4123,E,3.54,336.33,271119,,,A*68
$GPVTG,336.33,T,,M,3.54,N,6.56,K,A*3C
$GPGGA,080506.000,4913.6327,N,01634.4116,E,1,8,1.15,285.2,M,43.5,M,,*58
$GPGSA,A,3,01,22,14,03,23,11,19,17,,,,,1.45,1.15,0.88*0F
$GPRMC,080506.000,A,4913.6327,N,01634.4116,E,3.39,331.44,271119,,,A*6D
$GPVTG,331.44,T,,M,3.39,N,6.28,K,A*39
$GPGGA,080507.000,4913.6336,N,01634.4110,E,1,8,1.15,285.3,M,43.5,M,,*5E
$GPGSA,A,3,01,22,14,03,23,11,19,17,,,,,1.45,1.15,0.88*0F
$GPRMC,080507.000,A,4913.6336,N,01634.4110,E,3.14,328.44,271119,,,A*6D
$GPVTG,328.44,T,,M,3.14,N,5.82,K,A*3D
$GPGGA,080508.000,4913.6346,N,01634.4104,E,1,8,1.15,285.4,M,43.5,M,,*54
$GPGSA,A,3,01,22,14,03,23,11,19,17,,,,,1.45,1.15,0.88*0F
$GPRMC,080508.000,A,4913.6346,N,01634.4104,E,3.62,339.08,271119,,,A*69
$GPVTG,339.08,T,,M,3.62,N,6.70,K,A*3A
$GPGGA,080509.000,4913.6357,N,01634.4097,E,1,8,1.15,285.5,M,43.5,M,,*5F
$GPGSA,A,3,01,22,14,03,23,11,19,17,,,,,1.45,1.15,0.88*0F
$GPGSV,4,1,13,22,85,354,24,01,75,146,28,03,64,276,32,11,54,185,27*76
$GPGSV,4,2,13,14,42,058,28,17,34,302,24,23,28,205,31,31,24,091,16*7A
$GPGSV,4,3,13,19,21,319,17,40,17,124,,32,16,046,,08,03,182,*7B
$GPGSV,4,4,13,09,01,213,*43
$GPRMC,080509.000,A,4913.6357,N,01634.4097,E,3.78,332.87,271119,,,A*64
$GPVTG,332.87,T,,M,3.78,N,7.00,K,A*3B
$GPGGA,080510.000,4913.6367,N,01634.4090,E,1,8,1.16,285.6,M,43.5,M,,*53
$GPGSA,A,3,01,22,14,03,23,11,19,17,,,,,1.45,1.16,0.88*0C
$GPRMC,080510.000,A,4913.6367,N,01634.4090,E,3.42,329.99,271119,,,A*64
$GPVTG,329.99,T,,M,3.42,N,6.34,K,A*31
$GPGGA,080511.000,4913.6376,N,01634.4083,E,1,8,1.15,285.6,M,43.5,M,,*53
$GPGSA,A,3,01,22,14,03,23,11,19,17,,,,,1.45,1.15,0.88*0F
$GPRMC,080511.000,A,4913.6376,N,01634.4083,E,3.55,330.42,271119,,,A*6F
$GPVTG,330.42,T,,M,3.55,N,6.57,K,A*3C
$GPGGA,080512.000,4913.6388,N,01634.4076,E,1,8,1.15,285.6,M,43.5,M,,*5B
$GPGSA,A,3,01,22,14,03,23,11,19,17,,,,,1.45,1.15,0.88*0F
$GPRMC,080512.000,A,4913.6388,N,01634.4076,E,3.89,333.89,271119,,,A*62
$GPVTG,333.89,T,,M,3.89,N,7.22,K,A*3A
$GPGGA,080513.000,4913.6398,N,01634.4071,E,1,8,1.23,285.7,M,43.5,M,,*58
$GPGSA,A,3,01,22,14,03,23,11,19,17,,,,,2.21,1.23,1.84*06
$GPRMC,080513.000,A,4913.6398,N,01634.4071,E,3.79,340.90,271119,,,A*66
$GPVTG,340.90,T,,M,3.79,N,7.02,K,A*3B
$GPGGA,080514.000,4913.6408,N,01634.4066,E,1,8,1.15,285.7,M,43.5,M,,*52
$GPGSA,A,3,01,22,14,03,23,11,19,17,,,,,1.45,1.15,0.88*0F
$GPGSV,4,1,13,22,85,354,24,01,74,146,35,03,65,277,41,11,54,185,35*7C
$GPGSV,4,2,13,14,42,058,28,17,34,302,31,23,28,205,32,31,24,091,16*7D
$GPGSV,4,3,13,19,21,319,17,40,17,124,,32,16,046,28,08,03,182,*71
$GPGSV,4,4,13,09,01,213,*43
$GPRMC,080514.000,A,4913.6408,N,01634.4066,E,3.27,345.71,271119,,,A*68
$GPVTG,345.71,T,,M,3.27,N,6.05,K,A*3C
$GPGGA,080515.000,4913.6416,N,01634.4058,E,1,8,1.22,285.8,M,43.5,M,,*5A
$GPGSA,A,3,01,22,14,03,23,11,19,17,,,,,2.21,1.22,1.84*07
$GPRMC,080515.000,A,4913.6416,N,01634.4058,E,3.68,333.65,271119,,,A*64
$GPVTG,333.65,T,,M,3.68,N,6.83,K,A*3D
$GPGGA,080516.000,4913.6424,N,01634.4050,E,1,8,1.15,285.8,M,43.5,M,,*54
$GPGSA,A,3,01,22,14,03,23,11,19,17,,,,,1.45,1.15,0.88*0F
$GPRMC,080516.000,A,4913.6424,N,01634.4050,E,3.16,328.84,271119,,,A*62
$GPVTG,328.84,T,,M,3.16,N,5.85,K,A*34
$GPGGA,080517.000,4913.6432,N,01634.4042,E,1,8,1.15,285.9,M,43.5,M,,*50
$GPGSA,A,3,01,22,14,03,23,11,19,17,,,,,1.45,1.15,0.88*0F
$GPRMC,080517.000,A,4913.6432,N,01634.4042,E,3.76,332.88,271119,,,A*66
$GPVTG,332.88,T,,M,3.76,N,6.96,K,A*34
$GPGGA,080518.000,4913.6439,N,01634.4034,E,1,8,1.16,286.0,M,43.5,M,,*5C
$GPGSA,A,3,01,22,14,03,23,11,19,17,,,,,1.45,1.16,0.88*0C
$GPRMC,080518.000,A,4913.6439,N,01634.4034,E,3.36,332.20,271119,,,A*65
$GPVTG,332.20,T,,M,3.36,N,6.23,K,A*3C
$GPGGA,080519.000,4913.6447,N,01634.4027,E,1,8,1.15,285.9,M,43.5,M,,*5F
$GPGSA,A,3,01,22,14,03,23,11,19,17,,,,,1.45,1.15,0.88*0F
$GPGSV,4,1,13,22,85,354,28,01,74,146,32,03,65,277,38,11,54,185,33*7F
$GPGSV,4,2,13,14,42,058,31,17,34,302,30,23,28,205,34,31,24,091,19*7D
$GPGSV,4,3,13,19,21,319,21,44,17,123,,32,16,046,25,08,02,181,*78
$GPGSV,4,4,13,09,01,213,*43
$GPRMC,080519.000,A,4913.6447,N,01634.4027,E,3.18,332.15,271119,,,A*65
$GPVTG,332.15,T,,M,3.18,N,5.88,K,A*34
$GPGGA,080520.000,4913.6455,N,01634.4023,E,1,8,1.16,285.8,M,43.5,M,,*50
$GPGSA,A,3,01,22,14,03,23,11,19,17,,,,,1.45,1.16,0.88*0C
$GPRMC,080520.000,A,4913.6455,N,01634.4023,E,3.08,338.59,271119,,,A*6B
$GPVTG,338.59,T,,M,3.08,N,5.70,K,A*30
$GPGGA,080521.000,4913.6463,N,01634.4017,E,1,8,1.15,285.7,M,43.5,M,,*5F
$GPGSA,A,3,01,22,14,03,23,11,19,17,,,,,1.45,1.15,0.88*0F
$GPRMC,080521.000,A,4913.6463,N,01634.4017,E,3.40,340.10,271119,,,A*66
$GPVTG,340.10,T,,M,3.40,N,6.29,K,A*31
$GPGGA,080522.000,4913.6471,N,01634.4018,E,1,8,1.15,285.9,M,43.5,M,,*5E
$GPGSA,A,3,01,22,14,03,23,11,19,17,,,,,1.45,1.15,0.88*0F
$GPRMC,080522.000,A,4913.6471,N,01634.4018,E,3.10,5.02,271119,,,A*6D
$GPVTG,5.02,T,,M,3.10,N,5.74,K,A*3E
$GPGGA,080523.000,4913.6479,N,01634.4025,E,1,8,1.22,286.3,M,43.5,M,,*54
$GPGSA,A,3,01,22,14,03,23,11,19,17,,,,,2.21,1.22,1.84*07
$GPRMC,080523.000,A,4913.6479,N,01634.4025,E,3.46,42.70,271119,,,A*5F
$GPVTG,42.70,T,,M,3.46,N,6.41,K,A*0E
$GPGGA,080524.000,4913.6484,N,01634.4033,E,1,8,1.15,286.4,M,43.5,M,,*55
$GPGSA,A,3,01,22,14,03,23,11,19,17,,,,,1.45,1.15,0.88*0F
$GPGSV,4,1,13,22,85,354,28,01,74,146,33,03,65,277,37,11,53,185,35*70
$GPGSV,4,2,13,14,42,058,27,17,34,302,35,23,28,205,29,31,24,091,18*72
$GPGSV,4,3,13,19,21,319,33,44,17,123,,32,16,046,25,08,02,181,*7B
$GPGSV,4,4,13,09,01,213,*43
$GPRMC,080524.000,A,4913.6484,N,01634.4033,E,2.60,45.94,271119,,,A*55
$GPVTG,45.94,T,,M,2.60,N,4.83,K,A*0A
$GPGGA,080525.000,4913.6490,N,01634.4044,E,1,8,1.15,286.5,M,43.5,M,,*50
$GPGSA,A,3,01,22,14,03,23,11,19,17,,,,,1.45,1.15,0.88*0F
$GPRMC,080525.000,A,4913.6490,N,01634.4044,E,2.42,48.09,271119,,,A*58
$GPVTG,48.09,T,,M,2.42,N,4.48,K,A*04
$GPGGA,080526.000,4913.6494,N,01634.4054,E,1,8,1.15,286.6,M,43.5,M,,*55
$GPGSA,A,3,01,22,14,03,23,11,19,17,,,,,1.45,1.15,0.88*0F
$GPRMC,080526.000,A,4913.6494,N,01634.4054,E,3.21,66.38,271119,,,A*54
$GPVTG,66.38,T,,M,3.21,N,5.95,K,A*0F
$GPGGA,080527.000,4913.6496,N,01634.4062,E,1,8,1.15,286.7,M,43.5,M,,*52
$GPGSA,A,3,01,22,14,03,23,11,19,17,,,,,1.45,1.15,0.88*0F
$GPRMC,080527.000,A,4913.6496,N,01634.4062,E,2.19,66.96,271119,,,A*5C
$GPVTG,66.96,T,,M,2.19,N,4.06,K,A*0A
$GPGGA,080528.000,4913.6499,N,01634.4069,E,1,8,1.15,286.6,M,43.5,M,,*58
$GPGSA,A,3,01,22,14,03,23,11,19,17,,,,,1.45,1.15,0.88*0F
$GPRMC,080528.000,A,4913.6499,N,01634.4069,E,1.77,58.77,271119,,,A*5E
$GPVTG,58.77,T,,M,1.77,N,3.27,K,A*07
$GPGGA,080529.000,4913.6501,N,01634.4075,E,1,8,1.15,286.6,M,43.5,M,,*54
$GPGSA,A,3,01,22,14,03,23,11,19,17,,,,,1.45,1.15,0.88*0F
$GPGSV,4,1,13,22,85,354,28,01,74,146,33,03,65,277,40,11,53,185,34*71
$GPGSV,4,2,13,14,42,058,22,17,34,302,38,23,28,205,23,31,24,091,28*73
$GPGSV,4,3,13,19,21,319,34,32,16,046,23,08,02,181,,09,01,213,*74
$GPGSV,4,4,13,34,,,*7C
$GPRMC,080529.000,A,4913.6501,N,01634.4075,E,0.83,54.82,271119,,,A*5E
$GPVTG,54.82,T,,M,0.83,N,1.54,K,A*0D
$GPGGA,080530.000,4913.6505,N,01634.4082,E,1,8,1.15,286.7,M,43.5,M,,*51
$GPGSA,A,3,01,22,14,03,23,11,19,17,,,,,1.45,1.15,0.88*0F
$GPRMC,080530.000,A,4913.6505,N,01634.4082,E,1.95,49.84,271119,,,A*56
$GPVTG,49.84,T,,M,1.95,N,3.62,K,A*06
$GPGGA,080531.000,4913.6509,N,01634.4089,E,1,8,1.15,286.7,M,43.5,M,,*57
$GPGSA,A,3,01,22,14,03,23,11,19,17,,,,,1.45,1.15,0.88*0F
$GPRMC,080531.000,A,4913.6509,N,01634.4089,E,1.76,54.44,271119,,,A*5D
$GPVTG,54.44,T,,M,1.76,N,3.26,K,A*0B
$GPGGA,080532.000,4913.6512,N,01634.4096,E,1,8,1.15,286.6,M,43.5,M,,*51
$GPGSA,A,3,01,22,14,03,23,11,19,17,,,,,1.45,1.15,0.88*0F
$GPRMC,080532.000,A,4913.6512,N,01634.4096,E,2.05,62.96,271119,,,A*57
$GPVTG,62.96,T,,M,2.05,N,3.79,K,A*0C
$GPGGA,080533.000,4913.6515,N,01634.4105,E,1,8,1.15,286.5,M,43.5,M,,*5F
$GPGSA,A,3,01,22,14,03,23,11,19,17,,,,,1.45,1.15,0.88*0F
$GPRMC,080533.000,A,4913.6515,N,01634.4105,E,2.62,57.05,271119,,,A*57
$GPVTG,57.05,T,,M,2.62,N,4.85,K,A*05
$GPGGA,080534.000,4913.6520,N,01634.4115,E,1,8,1.15,286.6,M,43.5,M,,*5C
$GPGSA,A,3,01,22,14,03,23,11,19,17,,,,,1.45,1.15,0.88*0F
$GPGSV,4,1,13,22,85,357,32,01,74,146,36,03,65,277,42,11,53,185,38*72
$GPGSV,4,2,13,14,42,058,26,17,34,302,42,23,29,205,30,31,24,091,33*73
$GPGSV,4,3,13,19,21,319,38,32,16,046,23,08,02,181,,09,01,213,*78
$GPGSV,4,4,13,35,,,*7D
$GPRMC,080534.000,A,4913.6520,N,01634.4115,E,2.65,59.18,271119,,,A*52
$GPVTG,59.18,T,,M,2.65,N,4.90,K,A*04
$GPGGA,080535.000,4913.6524,N,01634.4127,E,1,8,1.15,286.5,M,43.5,M,,*5B
$GPGSA,A,3,01,22,14,03,23,11,19,17,,,,,1.45,1.15,0.88*0F
$GPRMC,080535.000,A,4913.6524,N,01634.4127,E,3.42,62.94,271119,,,A*5E
$GPVTG,62.94,T,,M,3.42,N,6.34,K,A*00
$GPGGA,080536.000,4913.6528,N,01634.4139,E,1,8,1.15,286.6,M,43.5,M,,*58
$GPGSA,A,3,01,22,14,03,23,11,19,17,,,,,1.45,1.15,0.88*0F
$GPRMC,080536.000,A,4913.6528,N,01634.4139,E,4.25,65.40,271119,,,A*56
$GPVTG,65.40,T,,M,4.25,N,7.88,K,A*0E
$GPGGA,080537.000,4913.6533,N,01634.4156,E,1,8,1.22,286.6,M,43.5,M,,*5E
$GPGSA,A,3,01,22,14,03,23,11,19,17,,,,,2.22,1.22,1.85*05
$GPRMC,080537.000,A,4913.6533,N,01634.4156,E,4.41,69.99,271119,,,A*5E
$GPVTG,69.99,T,,M,4.41,N,8.17,K,A*0D
$GPGGA,080538.000,4913.6537,N,01634.4169,E,1,8,1.22,286.6,M,43.5,M,,*59
$GPGSA,A,3,01,22,14,03,23,11,19,17,,,,,2.22,1.22,1.85*05
$GPRMC,080538.000,A,4913.6537,N,01634.4169,E,2.85,65.36,271119,,,A*5E
$GPVTG,65.36,T,,M,2.85,N,5.27,K,A*04
$GPGGA,080539.000,4913.6541,N,01634.4181,E,1,8,1.15,286.5,M,43.5,M,,*58
$GPGSA,A,3,01,22,14,03,23,11,19,17,,,,,1.45,1.15,0.88*0F
$GPGSV,4,1,13,22,85,357,32,01,74,146,35,03,65,277,39,11,53,185,39*7C
$GPGSV,4,2,13,14,42,058,25,17,34,302,41,23,29,205,33,31,24,091,33*70
$GPGSV,4,3,13,19,21,319,38,32,16,046,21,08,02,181,,09,01,213,*7A
$GPGSV,4,4,13,35,,,*7D
$GPRMC,080539.000,A,4913.6541,N,01634.4181,E,2.63,58.95,271119,,,A*57
$GPVTG,58.95,T,,M,2.63,N,4.87,K,A*00
$GPGGA,080540.000,4913.6545,N,01634.4191,E,1,8,1.15,286.3,M,43.5,M,,*55
$GPGSA,A,3,01,22,14,03,23,11,19,17,,,,,1.45,1.15,0.88*0F
$GPRMC,080540.000,A,4913.6545,N,01634.4191,E,3.67,64.62,271119,,,A*5E
$GPVTG,64.62,T,,M,3.67,N,6.80,K,A*07
$GPGGA,080541.000,4913.6548,N,01634.4203,E,1,8,1.15,286.1,M,43.5,M,,*53
$GPGSA,A,3,01,22,14,03,23,11,19,17,,,,,1.45,1.15,0.88*0F
$GPRMC,080541.000,A,4913.6548,N,01634.4203,E,3.09,62.88,271119,,,A*50
$GPVTG,62.88,T,,M,3.09,N,5.72,K,A*03
$GPGGA,080542.000,4913.6552,N,01634.4213,E,1,8,1.15,286.0,M,43.5,M,,*5B
$GPGSA,A,3,01,22,14,03,23,11,19,17,,,,,1.45,1.15,0.88*0F
$GPRMC,080542.000,A,4913.6552,N,01634.4213,E,3.36,63.94,271119,,,A*59
$GPVTG,63.94,T,,M,3.36,N,6.23,K,A*04
$GPGGA,080543.000,4913.6554,N,01634.4223,E,1,8,1.15,285.8,M,43.5,M,,*54
$GPGSA,A,3,01,22,14,03,23,11,19,17,,,,,1.45,1.15,0.88*0F
$GPRMC,080543.000,A,4913.6554,N,01634.4223,E,3.11,61.60,271119,,,A*51
$GPVTG,61.60,T,,M,3.11,N,5.76,K,A*0B
$GPGGA,080544.000,4913.6558,N,01634.4233,E,1,8,1.15,285.5,M,43.5,M,,*53
$GPGSA,A,3,01,22,14,03,23,11,19,17,,,,,1.45,1.15,0.88*0F
$GPGSV,4,1,13,22,85,357,31,01,74,146,35,03,65,277,41,11,53,185,38*71
$GPGSV,4,2,13,14,42,058,25,17,34,302,42,23,29,205,30,31,24,091,32*71
$GPGSV,4,3,13,19,21,319,40,32,16,046,25,08,02,181,,09,01,213,*71
$GPGSV,4,4,13,36,,,*7E
$GPRMC,080544.000,A,4913.6558,N,01634.4233,E,1.77,48.44,271119,,,A*54
$GPVTG,48.44,T,,M,1.77,N,3.28,K,A*09
$GPGGA,080545.000,4913.6561,N,01634.4242,E,1,8,1.15,285.4,M,43.5,M,,*5F
$GPGSA,A,3,01,22,14,03,23,11,19,17,,,,,1.45,1.15,0.88*0F
$GPRMC,080545.000,A,4913.6561,N,01634.4242,E,1.76,64.26,271119,,,A*52
$GPVTG,64.26,T,,M,1.76,N,3.26,K,A*0C
$GPGGA,080546.000,4913.6563,N,01634.4252,E,1,8,1.15,285.5,M,43.5,M,,*5E
$GPGSA,A,3,01,22,14,03,23,11,19,17,,,,,1.45,1.15,0.88*0F
$GPRMC,080546.000,A,4913.6563,N,01634.4252,E,3.81,65.66,271119,,,A*5D
$GPVTG,65.66,T,,M,3.81,N,7.07,K,A*04
$GPGGA,080547.000,4913.6567,N,01634.4263,E,1,8,1.15,285.4,M,43.5,M,,*58
$GPGSA,A,3,01,22,14,03,23,11,19,17,,,,,1.45,1.15,0.88*0F
$GPRMC,080547.000,A,4913.6567,N,01634.4263,E,2.33,37.37,271119,,,A*51
$GPVTG,37.37,T,,M,2.33,N,4.31,K,A*09
$GPGGA,080548.000,4913.6570,N,01634.4277,E,1,8,1.15,285.3,M,43.5,M,,*53
$GPGSA,A,3,01,22,14,03,23,11,19,17,,,,,1.45,1.15,0.88*0F
$GPRMC,080548.000,A,4913.6570,N,01634.4277,E,3.20,78.35,271119,,,A*57
$GPVTG,78.35,T,,M,3.20,N,5.92,K,A*0B
$GPGGA,080549.000,4913.6573,N,01634.4288,E,1,8,1.15,285.2,M,43.5,M,,*50
$GPGSA,A,3,01,22,14,03,23,11,19,17,,,,,1.45,1.15,0.88*0F
$GPGSV,4,1,13,22,85,357,31,01,74,146,36,03,65,277,40,11,53,185,28*72
$GPGSV,4,2,13,14,42,058,24,17,34,302,37,23,29,205,31,31,24,091,27*77
$GPGSV,4,3,13,19,21,319,39,32,16,046,21,08,02,181,,09,01,213,*7B
$GPGSV,4,4,13,38,,,*70
$GPRMC,080549.000,A,4913.6573,N,01634.4288,E,2.54,64.83,271119,,,A*57
$GPVTG,64.83,T,,M,2.54,N,4.70,K,A*04
$GPGGA,080550.000,4913.6574,N,01634.4296,E,1,8,1.15,285.0,M,43.5,M,,*52
$GPGSA,A,3,01,22,14,03,23,11,19,17,,,,,1.45,1.15,0.88*0F
$GPRMC,080550.000,A,4913.6574,N,01634.4296,E,1.67,53.89,271119,,,A*5A
$GPVTG,53.89,T,,M,1.67,N,3.09,K,A*00
$GPGGA,080551.000,4913.6577,N,01634.4304,E,1,8,1.15,284.8,M,43.5,M,,*53
$GPGSA,A,3,01,22,14,03,23,11,19,17,,,,,1.45,1.15,0.88*0F
$GPRMC,080551.000,A,4913.6577,N,01634.4304,E,2.50,63.60,271119,,,A*51
$GPVTG,63.60,T,,M,2.50,N,4.64,K,A*0F
$GPGGA,080552.000,4913.6581,N,01634.4313,E,1,8,1.15,284.7,M,43.5,M,,*50
$GPGSA,A,3,01,22,14,03,23,11,19,17,,,,,1.45,1.15,0.88*0F
$GPRMC,080552.000,A,4913.6581,N,01634.4313,E,2.05,52.91,271119,,,A*51
$GPVTG,52.91,T,,M,2.05,N,3.80,K,A*0E
$GPGGA,080553.000,4913.6585,N,01634.4322,E,1,8,1.15,284.5,M,43.5,M,,*55
$GPGSA,A,3,01,22,14,03,23,11,19,17,,,,,1.45,1.15,0.88*0F
$GPRMC,080553.000,A,4913.6585,N,01634.4322,E,2.82,71.74,271119,,,A*53
$GPVTG,71.74,T,,M,2.82,N,5.23,K,A*04
$GPGGA,080554.000,4913.6587,N,01634.4330,E,1,8,1.15,284.4,M,43.5,M,,*52
$GPGSA,A,3,01,22,14,03,23,11,19,17,,,,,1.45,1.15,0.88*0F
$GPGSV,4,1,13,22,85,357,31,01,74,146,36,03,65,277,43,11,53,185,38*70
$GPGSV,4,2,13,14,42,058,29,17,34,302,42,23,29,205,21,31,24,091,30*7F
$GPGSV,4,3,13,19,21,319,39,32,16,046,28,08,02,181,,09,01,213,*72
$GPGSV,4,4,13,38,,,32*71
$GPRMC,080554.000,A,4913.6587,N,01634.4330,E,2.79,69.04,271119,,,A*5F
$GPVTG,69.04,T,,M,2.79,N,5.16,K,A*08
$GPGGA,080555.000,4913.6590,N,01634.4337,E,1,8,1.15,284.2,M,43.5,M,,*54
$GPGSA,A,3,01,22,14,03,23,11,19,17,,,,,1.45,1.15,0.88*0F
$GPRMC,080555.000,A,4913.6590,N,01634.4337,E,2.45,62.51,271119,,,A*5B
$GPVTG,62.51,T,,M,2.45,N,4.54,K,A*0B
$GPGGA,080556.000,4913.6593,N,01634.4344,E,1,8,1.15,283.9,M,43.5,M,,*5C
$GPGSA,A,3,01,22,14,03,23,11,19,17,,,,,1.45,1.15,0.88*0F
$GPRMC,080556.000,A,4913.6593,N,01634.4344,E,2.16,62.50,271119,,,A*58
$GPVTG,62.50,T,,M,2.16,N,4.00,K,A*0D
$GPGGA,080557.000,4913.6594,N,01634.4352,E,1,8,1.15,283.6,M,43.5,M,,*52
$GPGSA,A,3,01,22,14,03,23,11,19,17,,,,,1.45,1.15,0.88*0F
$GPRMC,080557.000,A,4913.6594,N,01634.4352,E,2.45,88.77,271119,,,A*5E
$GPVTG,88.77,T,,M,2.45,N,4.54,K,A*0B
$GPGGA,080558.000,4913.6594,N,01634.4365,E,1,8,1.15,283.4,M,43.5,M,,*5B
$GPGSA,A,3,01,22,14,03,23,11,19,17,,,,,1.45,1.15,0.88*0F
$GPRMC,080558.000,A,4913.6594,N,01634.4365,E,3.46,91.63,271119,,,A*5A
$GPVTG,91.63,T,,M,3.46,N,6.41,K,A*02
$GPGGA,080559.000,4913.6592,N,01634.4376,E,1,8,1.15,283.3,M,43.5,M,,*59
$GPGSA,A,3,01,22,14,03,23,11,19,17,,,,,1.45,1.15,0.88*0F
$GPGSV,4,1,13,22,85,357,32,01,74,146,36,03,65,277,32,11,53,184,36*7A
$GPGSV,4,2,13,14,42,058,32,17,34,302,41,23,29,205,25,31,24,091,28*7B
$GPGSV,4,3,13,19,21,319,38,32,16,046,36,08,02,181,,09,01,213,*7C
$GPGSV,4,4,13,38,,,34*77
$GPRMC,080559.000,A,4913.6592,N,01634.4376,E,2.98,113.28,271119,,,A*69
$GPVTG,113.28,T,,M,2.98,N,5.52,K,A*35
$GPGGA,080600.000,4913.6590,N,01634.4390,E,1,8,1.15,283.0,M,43.5,M,,*5F
$GPGSA,A,3,01,22,14,03,23,11,19,17,,,,,1.45,1.15,0.88*0F
$GPRMC,080600.000,A,4913.6590,N,01634.4390,E,3.59,97.70,271119,,,A*50
$GPVTG,97.70,T,,M,3.59,N,6.65,K,A*0E
$GPGGA,080601.000,4913.6588,N,01634.4406,E,1,8,1.15,282.8,M,43.5,M,,*56
$GPGSA,A,3,01,22,14,03,23,11,19,17,,,,,1.45,1.15,0.88*0F
$GPRMC,080601.000,A,4913.6588,N,01634.4406,E,2.70,107.81,271119,,,A*6C
$GPVTG,107.81,T,,M,2.70,N,5.01,K,A*33
$GPGGA,080602.000,4913.6587,N,01634.4421,E,1,8,1.15,282.6,M,43.5,M,,*51
$GPGSA,A,3,01,22,14,03,23,11,19,17,,,,,1.45,1.15,0.88*0F
$GPRMC,080602.000,A,4913.6587,N,01634.4421,E,3.35,98.71,271119,,,A*5D
$GPVTG,98.71,T,,M,3.35,N,6.21,K,A*0A
$GPGGA,080603.000,4913.6583,N,01634.4436,E,1,8,1.15,282.5,M,43.5,M,,*51
$GPGSA,A,3,01,22,14,03,23,11,19,17,,,,,1.45,1.15,0.88*0F
$GPRMC,080603.000,A,4913.6583,N,01634.4436,E,3.83,121.87,271119,,,A*69
$GPVTG,121.87,T,,M,3.83,N,7.09,K,A*36
$GPGGA,080604.000,4913.6578,N,01634.4450,E,1,8,1.15,282.4,M,43.5,M,,*53
$GPGSA,A,3,01,22,14,03,23,11,19,17,,,,,1.45,1.15,0.88*0F
$GPGSV,4,1,13,22,85,357,31,01,74,146,34,03,65,277,32,11,53,184,33*7E
$GPGSV,4,2,13,14,42,057,33,17,34,302,32,23,29,205,18,31,24,091,22*75
$GPGSV,4,3,13,19,21,319,36,32,16,046,35,08,02,181,,09,01,213,*71
$GPGSV,4,4,13,41,,,*7E
$GPRMC,080604.000,A,4913.6578,N,01634.4450,E,3.71,116.07,271119,,,A*6B
$GPVTG,116.07,T,,M,3.71,N,6.87,K,A*30
$GPGGA,080605.000,4913.6576,N,01634.4464,E,1,8,1.15,282.2,M,43.5,M,,*5D
$GPGSA,A,3,01,22,14,03,23,11,19,17,,,,,1.45,1.15,0.88*0F
$GPRMC,080605.000,A,4913.6576,N,01634.4464,E,3.52,101.30,271119,,,A*60
$GPVTG,101.30,T,,M,3.52,N,6.53,K,A*3A
$GPGGA,080606.000,4913.6575,N,01634.4481,E,1,8,1.15,281.9,M,43.5,M,,*5E
$GPGSA,A,3,01,22,14,03,23,11,19,17,,,,,1.45,1.15,0.88*0F
$GPRMC,080606.000,A,4913.6575,N,01634.4481,E,2.92,105.50,271119,,,A*64
$GPVTG,105.50,T,,M,2.92,N,5.41,K,A*35
$GPGGA,080607.000,4913.6573,N,01634.4495,E,1,8,1.15,281.8,M,43.5,M,,*5D
$GPGSA,A,3,01,22,14,03,23,11,19,17,,,,,1.45,1.15,0.88*0F
$GPRMC,080607.000,A,4913.6573,N,01634.4495,E,3.42,102.03,271119,,,A*6B
$GPVTG,102.03,T,,M,3.42,N,6.34,K,A*39
$GPGGA,080608.000,4913.6571,N,01634.4509,E,1,8,1.15,281.7,M,43.5,M,,*5B
$GPGSA,A,3,01,22,14,03,23,11,19,17,,,,,1.45,1.15,0.88*0F
$GPRMC,080608.000,A,4913.6571,N,01634.4509,E,3.47,114.08,271119,,,A*6B
$GPVTG,114.08,T,,M,3.47,N,6.44,K,A*37
$GPGGA,080609.000,4913.6569,N,01634.4524,E,1,8,1.15,281.5,M,43.5,M,,*5E
$GPGSA,A,3,01,22,14,03,23,11,19,17,,,,,1.45,1.15,0.88*0F
$GPGSV,4,1,13,22,85,000,32,01,74,146,31,03,65,277,32,11,53,184,35*7F
$GPGSV,4,2,13,14,42,057,32,17,34,302,39,23,29,205,15,31,24,091,28*78
$GPGSV,4,3,13,19,21,319,30,32,16,046,34,08,02,181,,09,01,213,*76
$GPGSV,4,4,13,43,,,*7C
$GPRMC,080609.000,A,4913.6569,N,01634.4524,E,3.61,100.08,271119,,,A*6D
$GPVTG,100.08,T,,M,3.61,N,6.69,K,A*39
$GPGGA,080610.000,4913.6566,N,01634.4539,E,1,8,1.15,281.3,M,43.5,M,,*53
$GPGSA,A,3,01,22,14,03,23,11,19,17,,,,,1.45,1.15,0.88*0F
$GPRMC,080610.000,A,4913.6566,N,01634.4539,E,3.61,109.05,271119,,,A*62
$GPVTG,109.05,T,,M,3.61,N,6.69,K,A*3D
$GPGGA,080611.000,4913.6562,N,01634.4553,E,1,8,1.15,281.2,M,43.5,M,,*5B
$GPGSA,A,3,01,22,14,03,23,11,19,17,,,,,1.45,1.15,0.88*0F
$GPRMC,080611.000,A,4913.6562,N,01634.4553,E,3.52,115.48,271119,,,A*6F
$GPVTG,115.48,T,,M,3.52,N,6.53,K,A*30
$GPGGA,080612.000,4913.6558,N,01634.4565,E,1,8,1.15,281.0,M,43.5,M,,*56
$GPGSA,A,3,01,22,14,03,23,11,19,17,,,,,1.45,1.15,0.88*0F
$GPRMC,080612.000,A,4913.6558,N,01634.4565,E,3.17,120.93,271119,,,A*61
$GPVTG,120.93,T,,M,3.17,N,5.87,K,A*3B
$GPGGA,080613.000,4913.6552,N,01634.4576,E,1,8,1.15,280.8,M,43.5,M,,*56
$GPGSA,A,3,01,22,14,03,23,11,19,17,,,,,1.45,1.15,0.88*0F
$GPRMC,080613.000,A,4913.6552,N,01634.4576,E,3.17,131.33,271119,,,A*62
$GPVTG,131.33,T,,M,3.17,N,5.88,K,A*3E
$GPGGA,080614.000,4913.6548,N,01634.4587,E,1,8,1.15,280.7,M,43.5,M,,*5B
$GPGSA,A,3,01,22,14,03,23,11,19,17,,,,,1.45,1.15,0.88*0F
$GPGSV,4,1,13,22,85,000,33,01,74,146,36,03,65,277,35,11,53,184,26*7C
$GPGSV,4,2,13,14,42,057,34,17,34,302,35,23,29,205,17,31,24,091,31*78
$GPGSV,4,3,13,19,21,319,30,32,16,046,38,08,02,181,,09,01,213,*7A
$GPGSV,4,4,13,43,,,*7C
$GPRMC,080614.000,A,4913.6548,N,01634.4587,E,2.49,113.02,271119,,,A*68
$GPVTG,113.02,T,,M,2.49,N,4.61,K,A*30
$GPGGA,080615.000,4913.6547,N,01634.4603,E,1,8,1.15,280.6,M,43.5,M,,*5B
$GPGSA,A,3,01,22,14,03,23,11,19,17,,,,,1.45,1.15,0.88*0F
$GPRMC,080615.000,A,4913.6547,N,01634.4603,E,3.51,92.44,271119,,,A*5B
$GPVTG,92.44,T,,M,3.51,N,6.51,K,A*03
$GPGGA,080616.000,4913.6548,N,01634.4621,E,1,8,1.15,280.5,M,43.5,M,,*54
$GPGSA,A,3,01,22,14,03,23,11,19,17,,,,,1.45,1.15,0.88*0F
$GPRMC,080616.000,A,4913.6548,N,01634.4621,E,4.83,88.20,271119,,,A*56
$GPVTG,88.20,T,,M,4.83,N,8.95,K,A*04
$GPGGA,080617.000,4913.6544,N,01634.4637,E,1,8,1.22,280.3,M,43.5,M,,*5C
